{
  "zones": [
    {
      "name": "sajadul akash",
      "polygon": [
        [
          23.884465773620196,
          90.2961587885453
        ],
        [
          23.87610992966691,
          90.28658866746734
        ],
        [
          23.86614497866058,
          90.2849578845034
        ],
        [
          23.86304548714949,
          90.29148101635921
        ],
        [
          23.88042522160894,
          90.30268192040114
        ],
        [
          23.887054798873756,
          90.30465602609434
        ]
      ],
      "total_stops": 131,
      "total_distance_km": 6.62,
      "route": [
        {
          "id": "4bNaO6vagyYZqtcFp3dj",
          "name": "বিসমিল্লাহ জেনারেল স্টোর ",
          "address": "অনির্বাণ কাঁচা বাজার, আশুলিয়া, সাভার, ঢাকা ",
          "lat": 23.8819781,
          "lon": 90.3015717
        },
        {
          "id": "BZFKsRXuvC71ofcyvZzF",
          "name": "সঞ্জয় স্টোর",
          "address": "অনির্বাণ কাঁচা বাজার, বাসাঈদ, সাভার, ঢাকা ",
          "lat": 23.8819185,
          "lon": 90.301558
        },
        {
          "id": "IsBkmQRAG5G7N9PL9mLZ",
          "name": "বিসমিল্লাহ স্টোর",
          "address": "অনির্বাণ কাঁচা বাজার, আশুলিয়া, সাভার, ঢাকা ",
          "lat": 23.8819314,
          "lon": 90.3016472
        },
        {
          "id": "npjM4KO4f8HCY810jedO",
          "name": "ভ্যান স্টোর ",
          "address": "অনির্বাণ কাঁচা বাজার, আশুলিয়া, সাভার, ঢাকা ",
          "lat": 23.8818951,
          "lon": 90.3016598
        },
        {
          "id": "QysSL7fxs4twyzIYfXkF",
          "name": "মোবারক স্টোর ",
          "address": "অনির্বাণ কাঁচা বাজার, আশুলিয়া, সাভার, ঢাকা ",
          "lat": 23.8819402,
          "lon": 90.301699
        },
        {
          "id": "rttb2rW5tAX8dUSElM4f",
          "name": "রেদোয়ান পাইকারি স্টোর",
          "address": "অনির্বাণ কাঁচা বাজার, আশুলিয়া, সাভার,ঢাকা ",
          "lat": 23.8820371,
          "lon": 90.3017199
        },
        {
          "id": "4yqdRjIQyBWkz0fWWKzt",
          "name": "পাইকারি স্টোর ",
          "address": "অনির্বাণ কাঁচা বাজার, আশুলিয়া, সাভার, ঢাকা ",
          "lat": 23.8820707,
          "lon": 90.3016778
        },
        {
          "id": "kRICkWa8hiHD6qGBSNcV",
          "name": "মায়ের দোয়া জেনারেল স্টোর",
          "address": "অনির্বাণ কাঁচা বাজার, আশুলিয়া, সাভার, ঢাকা ",
          "lat": 23.8820244,
          "lon": 90.301484
        },
        {
          "id": "QctnKvUJM6CQbGJq3168",
          "name": "সাইদুল স্টোর ",
          "address": "অনির্বাণ কাঁচা বাজার, আশুলিয়া, সাভার, ঢাকা ",
          "lat": 23.8822661,
          "lon": 90.3014354
        },
        {
          "id": "eWgAGw8efBVVpZVYq12q",
          "name": "ইদ্রিস স্টোর",
          "address": "আউকপাড়া আনোয়ার জং রোড, সাভার, ঢাকা ",
          "lat": 23.8816331,
          "lon": 90.3004273
        },
        {
          "id": "RDLs6zD9qJ3Z5LI94lLN",
          "name": "আলিফ তালুকদার স্টোর ",
          "address": "দক্ষিন কলমা-২,খাগান  রোড , মধ্য আউকপাড়া, সাভার ঢাকা ১৩৪১",
          "lat": 23.8811758,
          "lon": 90.2992088
        },
        {
          "id": "MKHSfu7w5OdRLyW6NEem",
          "name": "মামুন স্টোর ",
          "address": "দক্ষিন কলমা-২,খাগান  রোড , মধ্য আউকপাড়া, সাভার ঢাকা ১৩৪১",
          "lat": 23.8811834,
          "lon": 90.2991787
        },
        {
          "id": "9G5eC77dEYcCExeWgiRG",
          "name": "মা মনি জেনারেল স্টোর ",
          "address": "দক্ষিন কলমা-২, আউকপাড়া, সাভার ঢাকা ১৩৪১",
          "lat": 23.8811692,
          "lon": 90.2991571
        },
        {
          "id": "BSyaLMl4IJOZMOfXmEsR",
          "name": "শাকিল জেনারেল স্টোর ",
          "address": "দক্ষিন কলমা-২,খাগান  রোড , মধ্য আউকপাড়া, সাভার ঢাকা ১৩৪১",
          "lat": 23.8806343,
          "lon": 90.2986589
        },
        {
          "id": "dvR83QwI6FWVG1gFaoN6",
          "name": "জামাল জেনারেল স্টোর ",
          "address": "দক্ষিন কলমা-২,খাগান  রোড , মধ্য আউকপাড়া, সাভার ঢাকা ১৩৪১",
          "lat": 23.8804639,
          "lon": 90.2981706
        },
        {
          "id": "zJKVAcMbhfA26Cv2bzqS",
          "name": "রিমু রুহেল ভ্যারাইটিজ স্টোর ",
          "address": "দক্ষিন কলমা-২,খাগান  রোড , মধ্য আউকপাড়া, সাভার ঢাকা ১৩৪১",
          "lat": 23.8803384,
          "lon": 90.2980307
        },
        {
          "id": "CR05oj7Z16wK14fttOpJ",
          "name": "আরাফাত জেনারেল স্টোর ",
          "address": "আউকপাড়া, আশুলিয়া, সাভার, ঢাকা ",
          "lat": 23.8802945,
          "lon": 90.2980079
        },
        {
          "id": "fQCGjoXInt9gw19c29Eh",
          "name": "লাবীব টেলিকম ",
          "address": "দক্ষিন কলমা-২,খাগান  রোড , মধ্য আউকপাড়া, সাভার ঢাকা ১৩৪১",
          "lat": 23.8803089,
          "lon": 90.2981855
        },
        {
          "id": "LqdHvvkgE6SRKAtQAU6s",
          "name": "আল আমিন জেনারেল স্টোর ",
          "address": "আউকপাড়া, আশুলিয়া, সাভার, ঢাকা ",
          "lat": 23.880358,
          "lon": 90.2985874
        },
        {
          "id": "gW08LYpUurF056HOVAvY",
          "name": "সাইদুল জেনারেল স্টোর ",
          "address": "কলমা আশুলিয়া রোড,সাভার ঢাকা ",
          "lat": 23.8799505,
          "lon": 90.2986625
        },
        {
          "id": "6FgG1uZKQPqNLG32ZwZ6",
          "name": "রুবেল স্টোর",
          "address": "আউকপাড়া, আশুলিয়া, সাভার, ঢাকা ",
          "lat": 23.8797418,
          "lon": 90.2985808
        },
        {
          "id": "3AE1weAibRDS74Jah5E3",
          "name": "বিসমিল্লাহ (২) স্টোর",
          "address": "আউকপাড়া,আশুলিয়া, সাভার, ঢাকা ",
          "lat": 23.8799708,
          "lon": 90.2972492
        },
        {
          "id": "52NMNViQSfskHVH5X3jZ",
          "name": "বিসিমল্লাহ জেনারেল স্টোর ",
          "address": "আউকপাড়া, আশুলিয়া, সাভার, ঢাকা ",
          "lat": 23.8799728,
          "lon": 90.2971546
        },
        {
          "id": "XqfbEvd9yry7AgvWfisn",
          "name": "মনির স্টোর",
          "address": "আউকপাড়া, আশুলিয়া, সাভার, ঢাকা ",
          "lat": 23.8795924,
          "lon": 90.2963616
        },
        {
          "id": "ZedVhvC2Mzd0g25ehhzf",
          "name": "আল মদিনা স্টোর ",
          "address": "আউকপাড়া, আশুলিয়া, সাভার, ঢাকা ",
          "lat": 23.8793899,
          "lon": 90.295711
        },
        {
          "id": "AoURqGkzPhxH5BhP8DqD",
          "name": "ভাই ভাই স্টোর",
          "address": "আউকপাড়া, আশুলিয়া, সাভার, ঢাকা ",
          "lat": 23.8791791,
          "lon": 90.2952309
        },
        {
          "id": "fvwbCqxIrZBP8JYwh6ey",
          "name": "মায়ের দোয়া জেনারেল স্টোর ",
          "address": "নেওয়াজ আলী ভিলেজ, কলমা ২ সাভার, ঢাকা ",
          "lat": 23.878195,
          "lon": 90.2928263
        },
        {
          "id": "tiSpSPrpRV8wYDv2nX0V",
          "name": "দুই ভাই জেনারেল স্টোর ",
          "address": "মধ্য কলমা,  আশুলিয়া রোড , সাভার ঢাকা ১৩৪১",
          "lat": 23.875861,
          "lon": 90.2937855
        },
        {
          "id": "vXQtBpjVzc6COrA0WyuE",
          "name": "মাদ্রাসা স্টোর ",
          "address": "দক্ষিন কলমা-২,  খাগান  রোড , সাভার ঢাকা ১৩৪১",
          "lat": 23.8757916,
          "lon": 90.2938084
        },
        {
          "id": "gHCAtfHB7PwTHrTaMlTK",
          "name": "লিজাজ টেইলার্স ",
          "address": "মধ্য কলমা,  আশুলিয়া রোড , সাভার ঢাকা ১৩৪১",
          "lat": 23.8757992,
          "lon": 90.2937578
        },
        {
          "id": "3CGnuTyri4Faemy5WlAa",
          "name": "ফয়সাল স্টোর",
          "address": "কলমা, সাভার, ঢাকা ",
          "lat": 23.8758403,
          "lon": 90.293484
        },
        {
          "id": "aivUpPFXKtzwQEapRGPE",
          "name": "আবি জেনারেল স্টোর ",
          "address": "মধ্য কলমা,  আশুলিয়া রোড , সাভার ঢাকা ১৩৪১",
          "lat": 23.8757676,
          "lon": 90.2934233
        },
        {
          "id": "bXKsPsmCvkWdrKGQHjKK",
          "name": "জুনায়েদ স্টোর ",
          "address": "মধ্য কলমা,  আশুলিয়া রোড , সাভার ঢাকা ১৩৪১",
          "lat": 23.8757234,
          "lon": 90.2934191
        },
        {
          "id": "7edkNR40heG0RVGbLIt0",
          "name": "রতোশি  জেনারেল স্টোর ",
          "address": "মধ্য কলমা, খাগান  রোড , সাভার ঢাকা ১৩৪১",
          "lat": 23.8757622,
          "lon": 90.2929249
        },
        {
          "id": "V9BdgGQVGpeDwa8Fj2C9",
          "name": "মায়ের  দোয়া জেনারেল স্টোর ",
          "address": "মধ্য কলমা,  আশুলিয়া রোড , সাভার ঢাকা ১৩৪১",
          "lat": 23.8757109,
          "lon": 90.2924847
        },
        {
          "id": "IVgF70ZIkIClTZ67fNlT",
          "name": "শান্তা জেনারেল স্টোর ",
          "address": "মধ্য কলমা,  আশুলিয়া রোড , সাভার ঢাকা ১৩৪১",
          "lat": 23.8757781,
          "lon": 90.2923679
        },
        {
          "id": "yVs7dTLVzO8pDoMlmAp4",
          "name": "রিপন জেনারেল স্টোর ",
          "address": "মধ্য কলমা,  আশুলিয়া রোড , সাভার ঢাকা ১৩৪১",
          "lat": 23.8757939,
          "lon": 90.2922143
        },
        {
          "id": "LpyAJPcIloxnKq0XvzuC",
          "name": "শাহ জাহান জেনারেল স্টোর ",
          "address": "মধ্য কলমা,  আশুলিয়া রোড , সাভার ঢাকা ১৩৪১",
          "lat": 23.8757813,
          "lon": 90.2919967
        },
        {
          "id": "UchfZ5ggWSkBrQPyndSG",
          "name": "মুন্না স্টোর ",
          "address": "মধ্য কলমা,  আশুলিয়া রোড , সাভার ঢাকা ১৩৪১",
          "lat": 23.8758275,
          "lon": 90.2918919
        },
        {
          "id": "2uX18abOFhJeOcObZDEz",
          "name": "কামাল টি স্টোর ",
          "address": "মধ্য কলমা,  আশুলিয়া রোড , সাভার ঢাকা ১৩৪১",
          "lat": 23.8757479,
          "lon": 90.2917264
        },
        {
          "id": "3Im4WjotRBy4XMi3igoF",
          "name": "মালা ভান্ডার ",
          "address": "মধ্য কলমা,  আশুলিয়া রোড , সাভার ঢাকা ১৩৪১",
          "lat": 23.8758076,
          "lon": 90.2912988
        },
        {
          "id": "BJfqKeRmalUhCsVluGZV",
          "name": "দুই বোন জেনারেল স্টোর ",
          "address": "মধ্য মকলমা,  আশুলিয়া রোড , সাভার ঢাকা ১৩৪১",
          "lat": 23.8758089,
          "lon": 90.2912899
        },
        {
          "id": "OwDt7RR75qz0UKgF2Rie",
          "name": "মা বাবার দোয়া ",
          "address": "মধ্য মকলমা,  আশুলিয়া রোড , সাভার ঢাকা ১৩৪১ ",
          "lat": 23.8758032,
          "lon": 90.2912226
        },
        {
          "id": "XgDVrDbjZsg917y6CgYO",
          "name": "কবির স্টোর ",
          "address": "কলমা আশুলিয়া রোড,সাভার ঢাকা ",
          "lat": 23.875658,
          "lon": 90.2910814
        },
        {
          "id": "UBMgsT4kkWQopbmVYHke",
          "name": "আনিক ভ্যারাইটিস  ",
          "address": "কলমা আশুলিয়া রোড,সাভার ঢাকা ",
          "lat": 23.8757803,
          "lon": 90.2910155
        },
        {
          "id": "U3jPHOEQtuaXAZZ8FWEM",
          "name": "অনিক ভ্যারাইটিজ স্টোর ",
          "address": "কলমা আশুলিয়া রোড,১নং কামলা, দোতলা মসজিদ সাভার ঢাকা ",
          "lat": 23.8758052,
          "lon": 90.2908168
        },
        {
          "id": "vOCslrNp1dY1ABwJAi1O",
          "name": "আব্দুল্লাহ এন্টারপ্রাইজ ",
          "address": "কলমা আশুলিয়া রোড,সাভার ঢাকা ",
          "lat": 23.8758621,
          "lon": 90.2906448
        },
        {
          "id": "OlWLwOaQRhzvDw4FblVc",
          "name": "মুক্তা মনি জেনারেল স্টোর ",
          "address": "কলমা বাসস্ট্যান্ড,সাভার ঢাকা ",
          "lat": 23.8758941,
          "lon": 90.2904692
        },
        {
          "id": "2zdf8KytkRfi49yEmFtU",
          "name": "আবির জেনারেল স্টোর ",
          "address": "কলমা বাসস্ট্যান্ড রোড,সাভার ঢাকা ",
          "lat": 23.8758036,
          "lon": 90.2901128
        },
        {
          "id": "Gcnd8IP1zhjp2AaxF7Vw",
          "name": "ভাই বোন স্টোর ",
          "address": "কলমা বাসস্ট্যান্ড,সাভার ঢাকা ",
          "lat": 23.8757771,
          "lon": 90.2898273
        },
        {
          "id": "WZoVKgfSXZSM2MqptgtF",
          "name": "আজম স্টোর ",
          "address": "কলমা বাসস্ট্যান্ড,সাভার ঢাকা ",
          "lat": 23.8757031,
          "lon": 90.2885372
        },
        {
          "id": "AgS4Ebj7l20gPwssa1dl",
          "name": "১ নং কলমা সাভার ",
          "address": "কলমা বাসস্ট্যান্ড,সাভার ঢাকা ",
          "lat": 23.8757124,
          "lon": 90.2885345
        },
        {
          "id": "1dEVbZWGLP8Z7mzNlEkC",
          "name": "রাজিয়া স্টোর ",
          "address": "কলমা বাসস্ট্যান্ড,সাভার ঢাকা ",
          "lat": 23.8757413,
          "lon": 90.2885159
        },
        {
          "id": "4bZTslClB92c5XpKLsJF",
          "name": "মাহাবুব পাইকারী স্টোর ",
          "address": "কলমা বাসস্ট্যান্ড,সাভার ঢাকা ",
          "lat": 23.8757179,
          "lon": 90.288481
        },
        {
          "id": "AmXESqP7TMPKFW2ib3gQ",
          "name": "সুবর্ণ এন্টারপ্রাইজ ",
          "address": "১নং কলমা বাসস্ট্যান্ড ,  আসুলিয়া ,সাভার,  ঢাকা। ",
          "lat": 23.8756385,
          "lon": 90.2881575
        },
        {
          "id": "tnElgiR1erK5DKhu0y5i",
          "name": "জিসান স্টোর ",
          "address": "কলমা বাসস্ট্যান্ড,সাভার ঢাকা ",
          "lat": 23.875691,
          "lon": 90.288005
        },
        {
          "id": "rLE5rVnJzAGWDGDzLBUJ",
          "name": "ফয়সাল জেনারেল স্টোর ",
          "address": "১নং কলমা বাজার,  সাভার,  ঢাকা। ",
          "lat": 23.8754645,
          "lon": 90.2878046
        },
        {
          "id": "jKyVQCSEJSPQrDQaQvMM",
          "name": "মায়ের দোয়া জেনারেল স্টোর ",
          "address": "কলমা বাসস্ট্যান্ড,সাভার ঢাকা ",
          "lat": 23.8754085,
          "lon": 90.2875557
        },
        {
          "id": "afOw4HtJvz4FKG7CzVTG",
          "name": "মাহাবুব জেনারেল স্টোর ",
          "address": "কলমা বাসস্ট্যান্ড,সাভার ঢাকা ",
          "lat": 23.8753718,
          "lon": 90.2875443
        },
        {
          "id": "qloYnn7uP78QL0Q2xtM6",
          "name": "নোয়াখালী জেনারেল স্টোর ",
          "address": "১ নং কলমা বাসস্ট্যান্ড, সাভার, ঢাকা ",
          "lat": 23.8752892,
          "lon": 90.2875166
        },
        {
          "id": "mZJhJ3lQJFBr4i9wOG1d",
          "name": "মজনু ভ্যারাইটিজ স্টোর ",
          "address": "কলমা বাসস্ট্যান্ড, সাভার, ঢাকা ",
          "lat": 23.8751391,
          "lon": 90.2875662
        },
        {
          "id": "hnvphVyNTG0k8WHat7ZH",
          "name": "হ্যাপি জেনারেল স্টোর ",
          "address": "১নং কলমা বাজার,জিননিরা রোড,  সাভার,  ঢাকা। ",
          "lat": 23.8743855,
          "lon": 90.2878506
        },
        {
          "id": "zpxYM3usogbJE2AqWrBu",
          "name": "পারুল ভ্যারাইটিজ স্টোর ",
          "address": "কলমা বাসস্ট্যান্ড, সাভার, ঢাকা ",
          "lat": 23.8742639,
          "lon": 90.287919
        },
        {
          "id": "zPgNYyArxF1o7ot4jfOw",
          "name": "শিকদার এন্টার প্রাইজ ",
          "address": "জিঞ্জিরা রোড ১নং কলমা বাজার, সাভার, ঢাকা। ",
          "lat": 23.8740677,
          "lon": 90.2878802
        },
        {
          "id": "iETyug8qto5M8P6myvvB",
          "name": "সিকদার পাইকারী বাজার ",
          "address": "কলমা জিনিজিরা রোড,সাভার, ঢাকা ",
          "lat": 23.8739888,
          "lon": 90.2878551
        },
        {
          "id": "3o7OcPbUYklHKPImUBrI",
          "name": "বাশার স্টোর ",
          "address": "১নং কলমা, জিনিজিরা রোড,সাভার, ঢাকা ",
          "lat": 23.8739539,
          "lon": 90.2878846
        },
        {
          "id": "RwgSOiwtZCCJmV0ojeFA",
          "name": "বশির জেনারেল স্টোর ",
          "address": "১নং কলমা, মার্কাস মসজিদ সংলগ্ন,সাভার, ঢাকা ",
          "lat": 23.8736629,
          "lon": 90.2880333
        },
        {
          "id": "vA8yrQE36lxYaVOiUWRT",
          "name": "নিরিবিলি জেনারেল স্টোর ",
          "address": " জিঞ্জিরা রোড ১নং কলমা বাজার, সাভার, ঢাকা। ",
          "lat": 23.8734722,
          "lon": 90.2879584
        },
        {
          "id": "cEiYBXPTkIM8WyEVb9VM",
          "name": "মোয়াজ্জেম পাইকারী স্টোর ",
          "address": "১নং কলমা,উইন্টার রোড, দক্ষিন পাড়া সাভার, ঢাকা। ",
          "lat": 23.8732697,
          "lon": 90.2879644
        },
        {
          "id": "cHTDBCNmjeBOqw1iiLJ7",
          "name": "প্যারেন্টস ডিপার্টমেন্টাল স্টোর ",
          "address": "১নং কলমা বাজার, সাভার,  ঢাকা। ",
          "lat": 23.8729181,
          "lon": 90.2880961
        },
        {
          "id": "drag46cWzGB8vCS3zpBh",
          "name": "শরিয়তপুর জেনারেল স্টোর ",
          "address": "১নং কলমা বাজার, সাভার,  ঢাকা। ",
          "lat": 23.8727666,
          "lon": 90.2881997
        },
        {
          "id": "PfCNDKfkniJJOPpH2Way",
          "name": "সুমাইয় স্টোর ",
          "address": "১নং কলমা বাজার,জিননিরা রোড,  সাভার,  ঢাকা। ",
          "lat": 23.8725552,
          "lon": 90.2881903
        },
        {
          "id": "pMT8hULCEqKLEInZlQtk",
          "name": "খাইরুল টেলিকম ",
          "address": "১নং কলমা বাজার,জিননিরা রোড,  সাভার,  ঢাকা। ",
          "lat": 23.8721887,
          "lon": 90.2883939
        },
        {
          "id": "XILkjBkSmcFzqnOjXUEh",
          "name": "জহির স্টোর ",
          "address": "১নং কলমা বাজার,জিননিরা রোড,  সাভার,  ঢাকা। ",
          "lat": 23.8721167,
          "lon": 90.2884237
        },
        {
          "id": "1j8FaWXfqsztsfMyG7gz",
          "name": "রজনীগন্ধা Gift & Toys গ্যালারী ",
          "address": "১নং কলমা, কলমা ওয়াজ আলী মডেল স্কুল সংলগ্ন, জিনিজিরা রোড,সাভার, ঢাকা ",
          "lat": 23.8739481,
          "lon": 90.2884538
        },
        {
          "id": "jEOkyHEAgHV4L9slm5cO",
          "name": "রজনীগন্ধা Gift & Toys গ্যালারী",
          "address": "১নং কলমা,কলমা ওয়াজ আলী মডেল স্কুল সংলগ্ন,  জিনিজিরা রোড,সাভার, ঢাকা ",
          "lat": 23.8738095,
          "lon": 90.2887501
        },
        {
          "id": "1qaznSle63KBoRRlkEeB",
          "name": "মেসার্স রিপন স্টোর ",
          "address": "১নং কলমা, ওয়াজ আলী স্কুল সংলগ্ন ,সাভার, ঢাকা ",
          "lat": 23.8738567,
          "lon": 90.2889175
        },
        {
          "id": "TtffXtSMqFNuU8m82YvI",
          "name": "বিশ্বাস জেনারেল স্টোর ",
          "address": "১নং কলমা, ওয়াজ আলী স্কুল সংলগ্ন, ,সাভার, ঢাকা ",
          "lat": 23.8739975,
          "lon": 90.2888196
        },
        {
          "id": "WBQvi80hi1lstIuChxcg",
          "name": "তাসলিমা জেনারেল স্টোর ",
          "address": "১নং কলমা, ওয়াজ আলী স্কুল সংলগ্ন ,সাভার, ঢাকা ",
          "lat": 23.8742832,
          "lon": 90.2892636
        },
        {
          "id": "gTHEFgGxoVUQcWWOlwDs",
          "name": "রাজ টি স্টোর ",
          "address": "১নং কলমা, ওয়াজ আলী স্কুল সংলগ্ন ,সাভার, ঢাকা ",
          "lat": 23.8740203,
          "lon": 90.2896294
        },
        {
          "id": "ducniE1yCLmZ7Cr9kKlK",
          "name": "ইসমাইল জেনারেল স্টোর -২",
          "address": "১নং কলমা, ওয়াজ আলী স্কুল সংলগ্ন ,সাভার, ঢাকা ",
          "lat": 23.8740013,
          "lon": 90.2898712
        },
        {
          "id": "KBXYYbyMgnqPr3UNwnBz",
          "name": "ঈসমাইল স্টোর (২)",
          "address": "১ নং কলমা, আমতলা ",
          "lat": 23.8739775,
          "lon": 90.2900563
        },
        {
          "id": "SvXlAYTCUCBOyUDdYjQL",
          "name": "মদিনা জেনারেল স্টোর ",
          "address": "১নং কলমা, ওয়াজ আলী স্কুল সংলগ্ন ,সাভার, ঢাকা ",
          "lat": 23.8738616,
          "lon": 90.29055
        },
        {
          "id": "fXd0JNLkX8kkgktQpXEg",
          "name": "সিফাত জেনারেল স্টোর ",
          "address": "১নং কলমা, ওয়াজ আলী স্কুল সংলগ্ন ,সাভার, ঢাকা ",
          "lat": 23.8737334,
          "lon": 90.2910152
        },
        {
          "id": "xnvwhM3RzkJhB8C32iNE",
          "name": "ভাই ভাই জেনারেল স্টোর ",
          "address": "১নং কলমা,মীরবাড়ী চৌরাস্তা ,সাভার, ঢাকা ",
          "lat": 23.8738856,
          "lon": 90.2911964
        },
        {
          "id": "AXoGLirCAGs1ythpbElT",
          "name": "জামাল স্টোর ",
          "address": "১নং কলমা,মীরবাড়ী চৌরাস্তা ,সাভার, ঢাকা ",
          "lat": 23.873802,
          "lon": 90.2914408
        },
        {
          "id": "OvINm8pvBI923sqdOt9m",
          "name": "সিয়াম জেনারেল স্টোর ",
          "address": "১নং কলমা,মীরবাড়ী চৌরাস্তা ,সাভার, ঢাকা ",
          "lat": 23.8738231,
          "lon": 90.2914938
        },
        {
          "id": "2s9CKeNT3cgPWd3giwgo",
          "name": "শাহাদাত স্টোর ",
          "address": "১নং কলমা,মীরবাড়ী চৌরাস্তা ,সাভার, ঢাকা ",
          "lat": 23.8737829,
          "lon": 90.2914812
        },
        {
          "id": "jF9OOOsCOdWH8uSge40m",
          "name": "লিটন জেনারেল স্টোর ",
          "address": "১নং কলমা,মীরবাড়ী চৌরাস্তা ,সাভার, ঢাকা ",
          "lat": 23.8737569,
          "lon": 90.2915347
        },
        {
          "id": "2VHd5L5NCoRZdH5OjRZV",
          "name": "মারুফ জেনারেল স্টোর ",
          "address": "১নং কলমা,মীরবাড়ী চৌরাস্তা ,সাভার, ঢাকা ",
          "lat": 23.872957,
          "lon": 90.2913571
        },
        {
          "id": "fGf9ZgCNMd8REbtFELMo",
          "name": "মা বাবার দোয়া বোরকা হাউজ (আল আমিন ভ্যারাইটিজ স্টোর) ",
          "address": "১নং কলমা,মীরবাড়ী চৌরাস্তা ,সাভার, ঢাকা ",
          "lat": 23.8726553,
          "lon": 90.2913528
        },
        {
          "id": "lmq43hB9hKF3Tsj3AtGL",
          "name": "সবুজ জেনারেল স্টোর ",
          "address": "১নং কলমা,উইন্টার রোড, দক্ষিন পাড়া সাভার, ঢাকা। ",
          "lat": 23.8722397,
          "lon": 90.2914154
        },
        {
          "id": "zFnEx5rl78gtZSc3Zamg",
          "name": "সাহিদুল স্টোর ",
          "address": "জিনজিরা মসজিদ রোড ",
          "lat": 23.8706766,
          "lon": 90.2888881
        },
        {
          "id": "IOCCPTC6ZvFIZTgaSNN7",
          "name": "শেখ জেনারেল স্টোর ",
          "address": "জিনজিরা মসজিদ রোড সাভার ঢাকা ",
          "lat": 23.8704956,
          "lon": 90.2890093
        },
        {
          "id": "gSUkfIrYtZjlGcXPGkoq",
          "name": "শ্রাবন্তি জেনারেল স্টোর ",
          "address": "জিনজিরা মসজিদ রোড, সাভার ঢাকা। ",
          "lat": 23.8702093,
          "lon": 90.2894639
        },
        {
          "id": "b6CTGsujTv58NUclRCVj",
          "name": "মহিদ মিয়া স্টোর ",
          "address": "জিনজিরা ,মসজিদ রোড ,সাভার, ঢাকা ",
          "lat": 23.8700262,
          "lon": 90.2890231
        },
        {
          "id": "7QDXbvnbF9APLQiZ8cV9",
          "name": "মুস্কান জেনারেল স্টোর ",
          "address": "জিনজিরা মসজিদ রোড,সাভার ঢাকা ",
          "lat": 23.8698706,
          "lon": 90.2891304
        },
        {
          "id": "8hxWYbEWaYP4Lq55P6ze",
          "name": "ভাই বোন পাইকারী বাজার ",
          "address": "জিনজিরা উত্তর পাড়া, বাটন ফ্যাক্টরির পাশে ,সাভার ঢাকা ",
          "lat": 23.8697068,
          "lon": 90.2893948
        },
        {
          "id": "gbnbnSGYTn8uUjJamVaX",
          "name": "ডি  এস জেনারেল স্টোর ",
          "address": "জিনজিরা মসজিদ রোড,সাভার ঢাকা ",
          "lat": 23.8694461,
          "lon": 90.2891824
        },
        {
          "id": "iu9o2NR1chyFhSNAZh9H",
          "name": "মা জেনারেল স্টোর ",
          "address": "জিনজিরা উত্তর পাড়া, বাটন ফ্যাক্টরির পাশে ,সাভার ঢাকা ",
          "lat": 23.8683612,
          "lon": 90.2895552
        },
        {
          "id": "i884UAeT3Utl9hm5dHGH",
          "name": "তানহা স্টোর ",
          "address": "জিনজিরা উত্তর পাড়া, বাটন ফ্যাক্টরির পাশে ,সাভার ঢাকা ",
          "lat": 23.8679081,
          "lon": 90.2896576
        },
        {
          "id": "WSWLx105BCWU4FuC2bcB",
          "name": "মামা ভাগিনা  স্টোর ",
          "address": "জিনজিরা উত্তর পাড়া, বাটন ফ্যাক্টরির পাশে ,সাভার ঢাকা ",
          "lat": 23.8679055,
          "lon": 90.2896639
        },
        {
          "id": "bTQWsSoGZsdfuO1zOnr1",
          "name": "রাবেয়া বসরী স্টোর ",
          "address": "জিনজিরা উত্তর পাড়া, বাটন ফ্যাক্টরির পাশে ,সাভার ঢাকা ",
          "lat": 23.8678607,
          "lon": 90.2895856
        },
        {
          "id": "SG3fgJxavomGaUMOljvf",
          "name": "আরিফ স্টোর ",
          "address": "জিনজিরা উত্তর পাড়া, বাটন ফ্যাক্টরির পাশে ,সাভার ঢাকা ",
          "lat": 23.8676714,
          "lon": 90.2895737
        },
        {
          "id": "n6JHntsiIydXYgfqtY2a",
          "name": "নাইম জেনারেল স্টোর ",
          "address": "জিনজিরা উত্তর পাড়া, বাটন ফ্যাক্টরির পাশে ,সাভার ঢাকা ",
          "lat": 23.8674904,
          "lon": 90.2898203
        },
        {
          "id": "jSt6QdbMCaDgqnE4K4ni",
          "name": "শীমা জেনারেল স্টোর ",
          "address": "জিনজিরা উত্তর পাড়া, বাটন ফ্যাক্টরির পাশে ,সাভার ঢাকা ",
          "lat": 23.8669423,
          "lon": 90.2899486
        },
        {
          "id": "KBUnBfiVSnrq1RkjBw1M",
          "name": "স্বপন জেনারেল স্টোর ",
          "address": "জিনজিরা উত্তর পাড়া, বাটন ফ্যাক্টরির পাশে ,সাভার ঢাকা ",
          "lat": 23.8665225,
          "lon": 90.2899437
        },
        {
          "id": "gYIYaA0UunmlSAR9wCMR",
          "name": "আরিফ জেনারেল স্টোর এন্ড পান বিতান ",
          "address": "জিনজিরা রোড, কালমা  ,সাভার ঢাকা ",
          "lat": 23.8660281,
          "lon": 90.2901122
        },
        {
          "id": "g6mqHWgh4OnKAJQGYPlt",
          "name": "ফাতেমা বস্ত্রালয় ",
          "address": "জিনজিরা উত্তর পাড়া, বাটন ফ্যাক্টরির পাশে ,সাভার ঢাকা ",
          "lat": 23.8659356,
          "lon": 90.2900785
        },
        {
          "id": "QY1PpfzSjdLcIfUJtNqW",
          "name": "বিসমিল্লাহ জেনারেল স্টোর ",
          "address": "জিনজিরা রোড , কালমা  ,সাভার ঢাকা ",
          "lat": 23.8656626,
          "lon": 90.2901199
        },
        {
          "id": "vJlKo3hVr4Ht2caGgBQB",
          "name": "মারিয়া স্টোর",
          "address": "জিনজিরা উত্তর পাড়া, বাটন ফ্যাক্টরির পাশে ,সাভার ঢাকা ",
          "lat": 23.8653397,
          "lon": 90.290304
        },
        {
          "id": "fBM4HOYJDSkj4473SwKd",
          "name": "শিকদার স্টোর ",
          "address": "১নং কলমা,উইন্টার রোড, দক্ষিন পাড়া সাভার, ঢাকা। ",
          "lat": 23.8720153,
          "lon": 90.2916368
        },
        {
          "id": "UmN5xbke0IjWZHf5SqFr",
          "name": "হাবিবুর জেনারেল স্টোর ",
          "address": "১নং কলমা,উইন্টার রোড, দক্ষিন পাড়া সাভার, ঢাকা। ",
          "lat": 23.8720076,
          "lon": 90.2923213
        },
        {
          "id": "cpiRuVwFIhYRWleccwSZ",
          "name": "তারেক জেনারেল স্টোর ",
          "address": "১নং কলমা,উইন্টার রোড, দক্ষিন পাড়া সাভার, ঢাকা। ",
          "lat": 23.8718791,
          "lon": 90.2930827
        },
        {
          "id": "LCBOjAt7hqBanNgtvdie",
          "name": "সজিব সাকিব টেলিকম এন্ড ষ্টেশনারী ",
          "address": "১নং কলমা,উইন্টার রোড, দক্ষিন পাড়া সাভার, ঢাকা। ",
          "lat": 23.8718637,
          "lon": 90.2933883
        },
        {
          "id": "waAXlER9KdCDx6wKDavK",
          "name": "ইসলাম ভ্যারাইটিজ স্টোর ",
          "address": "১নং কলমা,উইন্টার রোড, দক্ষিন পাড়া সাভার, ঢাকা। ",
          "lat": 23.8717613,
          "lon": 90.2939274
        },
        {
          "id": "aNha4sPLnPxy8nZRbyWJ",
          "name": "সাদিয়া জেনারেল স্টোর ",
          "address": "১নং কলমা,উইন্টার রোড, দক্ষিন পাড়া সাভার, ঢাকা। ",
          "lat": 23.8717308,
          "lon": 90.2940607
        },
        {
          "id": "XJExGdGJf4uckGotMJzn",
          "name": "সততা পাইকারী বাজার ",
          "address": "১নং কলমা,উইন্টার রোড, দক্ষিন পাড়া সাভার, ঢাকা। ",
          "lat": 23.8717501,
          "lon": 90.294105
        },
        {
          "id": "CdDhIPjgmoCsV93EMV5R",
          "name": "মহাসিন জেনারেল স্টোর ",
          "address": "১নং কলমা,উইন্টার রোড, দক্ষিন পাড়া সাভার, ঢাকা। ",
          "lat": 23.8717328,
          "lon": 90.2941301
        },
        {
          "id": "FLpOBRsoM90ZDVdE6ud2",
          "name": "সজল জেনারেল স্টোর ",
          "address": "১নং কলমা,উইন্টার রোড, দক্ষিন পাড়া সাভার, ঢাকা। ",
          "lat": 23.8718942,
          "lon": 90.2942063
        },
        {
          "id": "PGHqxJVSDx8u4mM1z4er",
          "name": "ইয়াসিন জেনারেল স্টোর ",
          "address": "১নং কলমা,উইন্টার রোড, দক্ষিন পাড়া সাভার, ঢাকা। ",
          "lat": 23.871652,
          "lon": 90.2946351
        },
        {
          "id": "1g8fFOgEVxZkgkuWv2uU",
          "name": "শাহাবুদ্দিন জেনারেল স্টোর ",
          "address": "১নং কলমা,উইন্টার রোড, দক্ষিন পাড়া সাভার, ঢাকা। ",
          "lat": 23.8718123,
          "lon": 90.294784
        },
        {
          "id": "ZdRnZvrlKesM2unkExDk",
          "name": "সাকিব স্টোর ",
          "address": "১নং কলমা,উইন্টার রোড, দক্ষিন পাড়া সাভার, ঢাকা। ",
          "lat": 23.8713195,
          "lon": 90.296118
        },
        {
          "id": "VOxAWMVkGKjABcMJ8dg7",
          "name": "রাব্বি স্টোর ",
          "address": "দক্ষিন কলমা-২,খাগান  রোড , মধ্য আউকপাড়া, সাভার ঢাকা ১৩৪১",
          "lat": 23.8762455,
          "lon": 90.2952776
        },
        {
          "id": "RmvujQR7hePP0G5N0v5R",
          "name": "মায়ের দোয়া শামীম স্টোর ",
          "address": "দক্ষিন কলমা-২,খাগান  রোড , মধ্য আউকপাড়া, সাভার ঢাকা ১৩৪১",
          "lat": 23.8763567,
          "lon": 90.2953667
        },
        {
          "id": "g3KHXpfxhmFwgh8Q5e0q",
          "name": "মনির স্টোর ",
          "address": "দক্ষিন কলমা-২,খাগান  রোড , মধ্য আউকপাড়া, সাভার ঢাকা ১৩৪১",
          "lat": 23.8766077,
          "lon": 90.2962514
        },
        {
          "id": "U1hs6DRH0BRgFuVX2j9t",
          "name": "রিতু ভ্যারাইটিজ স্টোর ",
          "address": "দক্ষিন কলমা-২,খাগান  রোড , মধ্য আউকপাড়া, সাভার ঢাকা ১৩৪১",
          "lat": 23.8764837,
          "lon": 90.2973272
        },
        {
          "id": "d0MWh3AYXbgEbfuQgtLk",
          "name": "দেওয়ান ফার্মেসী এন্ড ডিপার্টমেন্টাল স্টোর ",
          "address": "দক্ষিন কলমা-২,খাগান  রোড , মধ্য আউকপাড়া, সাভার ঢাকা ১৩৪১",
          "lat": 23.8765485,
          "lon": 90.2975949
        },
        {
          "id": "8ECu534j4zltLUkva5NQ",
          "name": "লাবনী জেনারেল স্টোর ",
          "address": "দক্ষিন কলমা-২,খাগান  রোড , মধ্য আউকপাড়া, সাভার ঢাকা ১৩৪১",
          "lat": 23.8764445,
          "lon": 90.2984796
        },
        {
          "id": "7ig0tiHyoq1F1RD5Snyc",
          "name": "সামিউল জেনারেল স্টোর ",
          "address": "দক্ষিন কলমা-২,খাগান  রোড , মধ্য আউকপাড়া, সাভার ঢাকা ১৩৪১",
          "lat": 23.8769587,
          "lon": 90.2986136
        },
        {
          "id": "ILoR8Hw9jSmjzBTM605z",
          "name": "নিপা নিশিতা জেনারেল স্টোর ",
          "address": "দক্ষিন কলমা-২,খাগান  রোড , মধ্য আউকপাড়া, সাভার ঢাকা ১৩৪১",
          "lat": 23.8769895,
          "lon": 90.2986362
        }
      ]
    },
    {
      "name": "umran_islam",
      "polygon": [
        [
          23.84850759542624,
          90.268365740429
        ],
        [
          23.847997488179022,
          90.26731431457065
        ],
        [
          23.846226811867098,
          90.26753425569409
        ],
        [
          23.84475531730495,
          90.2681136127997
        ],
        [
          23.84490246751285,
          90.27198672233911
        ],
        [
          23.84641319998635,
          90.272743105227
        ],
        [
          23.848434022389473,
          90.27199208675673
        ]
      ],
      "total_stops": 37,
      "total_distance_km": 1.34,
      "route": [
        {
          "id": "S2rBflu1RrNuUEhyBAW5",
          "name": "মজিবর স্টোর ",
          "address": "পালনপাড়া সাভার ঢাকা ",
          "lat": 23.847992,
          "lon": 90.2692637
        },
        {
          "id": "HeP6Lggvugonomxu229k",
          "name": "কেয়া জেনারেল স্টোর  ",
          "address": "পালনপাড়া সাভার ঢাকা ",
          "lat": 23.8479713,
          "lon": 90.2692699
        },
        {
          "id": "Ykg81XnGKiAv9Nbm0GAe",
          "name": "রীয়ান স্টোর ",
          "address": "পালোয়ান পাড়া সাভার ঢাকা ",
          "lat": 23.847969,
          "lon": 90.2705214
        },
        {
          "id": "Ai0SQVEOzoqSZno6KT2X",
          "name": "পিরোজপুর স্টোর ",
          "address": "পানপাড়া,সাভার, ঢাকা ",
          "lat": 23.8480681,
          "lon": 90.2708439
        },
        {
          "id": "lY0LossUWWtRfPBcUS6J",
          "name": "সোহান স্টোর ",
          "address": "পালনপাড়া সাভার ঢাকা ",
          "lat": 23.8478133,
          "lon": 90.2710562
        },
        {
          "id": "VEsMOS7lYis9zAhDAh4c",
          "name": "আনোয়ার স্টোর ",
          "address": " রাজাসন পালোয়ান  পাড়া সাভার ঢাকা ",
          "lat": 23.8476276,
          "lon": 90.2710264
        },
        {
          "id": "WEE4vZUPXORMrVOu2XXp",
          "name": "তাহামিনা স্টোর ",
          "address": "রাজাসন পালন পাড়া সাভার ঢাকা ",
          "lat": 23.8474861,
          "lon": 90.2709538
        },
        {
          "id": "re12JnbHDN0vb2jKUq35",
          "name": "আল্লাহ মেহেরবান ভ্যারাইটি স্টোর ",
          "address": "পালোয়ান পাড়া সাভার ঢাকা ",
          "lat": 23.8472383,
          "lon": 90.2710047
        },
        {
          "id": "qoI4alT1rbdLdpQfxvb5",
          "name": "ফেরদৌস স্টোর ",
          "address": "রাজাশন পালোয়ান পাড়া সাভার ঢাকা  ",
          "lat": 23.8456803,
          "lon": 90.2716197
        },
        {
          "id": "0tEw47gwTR2pskGzSguF",
          "name": "মোজাম্মেল স্টোর ",
          "address": "রাজাশন পালন পাড়াসাভার  ঢাকা ",
          "lat": 23.8456453,
          "lon": 90.2714736
        },
        {
          "id": "A10rbLR6JPT9S5fgdNwp",
          "name": "জয়ী স্টোর ",
          "address": "রাজাশন বাজার সাভার ঢাকা ",
          "lat": 23.8457912,
          "lon": 90.2710585
        },
        {
          "id": "jHAXn4cm1vRgFJUXkG7o",
          "name": "জহির স্টোর ",
          "address": "পালোয়ান পাড়া সাভার ঢাকা ",
          "lat": 23.8457674,
          "lon": 90.2710301
        },
        {
          "id": "IuEYExMFnvif8GSBeeVT",
          "name": "আলামিন স্টোর ",
          "address": "পালোয়ান পাড়া রাজাসন সাভার ঢাকা ",
          "lat": 23.845642,
          "lon": 90.2704533
        },
        {
          "id": "W2yqd1ovM49kYEE50cwD",
          "name": "রাসেল স্টোর ",
          "address": "পালোয়ান পাড়া, সাভার, ঢাকা",
          "lat": 23.845524,
          "lon": 90.2704459
        },
        {
          "id": "aRwenFn35NhMPDtdlCp1",
          "name": "লামিয়া স্টোর ",
          "address": "পালোয়ান পাড়া রাজাশন সাভার ঢাকা ",
          "lat": 23.8455986,
          "lon": 90.2703759
        },
        {
          "id": "ibRLxbw9EwTDeC3ZBpxj",
          "name": "রাসেল স্টোর ",
          "address": "পালোয়ানপাড়া সাভার ঢাকা ",
          "lat": 23.8455759,
          "lon": 90.2700368
        },
        {
          "id": "L95FkcLkyYnQX3ID2EEJ",
          "name": "আর এস এন্টারপ্রাইজ ",
          "address": "পালোয়ান পাড়া, সাভার, ঢাকা ",
          "lat": 23.8455591,
          "lon": 90.269973
        },
        {
          "id": "0R0EfcCQvHjAanoVFslt",
          "name": "ইয়াসিন স্টোর ",
          "address": "পালোয়ান পাড়া রজাশন সাভার ঢাকা ",
          "lat": 23.8455752,
          "lon": 90.2698742
        },
        {
          "id": "aOkKs5wuu8GYyVNjxZVp",
          "name": "হান্নান স্টোর ",
          "address": "পালোয়ানপাড়া রাজা সন  সাভার ঢাকা ",
          "lat": 23.8455785,
          "lon": 90.269765
        },
        {
          "id": "TrsfK67V0KtAeyKrPvE8",
          "name": "রাবেয়া স্টোর",
          "address": "পেয়ারা বাগান রাজাশন, সাভার, ঢাকা ",
          "lat": 23.845437,
          "lon": 90.2689214
        },
        {
          "id": "7ydEvWPW5NcMqsaKfArM",
          "name": "শাহিন স্টোর",
          "address": "পেয়ারাপাড়া, সাভার, ঢাকা ",
          "lat": 23.8454765,
          "lon": 90.2687784
        },
        {
          "id": "gBH6J61rtcuS6GHjn56o",
          "name": "মরিয়ম ষ্টোর ",
          "address": "পেয়ারা বাগ সাভার ঢাকা ",
          "lat": 23.8454522,
          "lon": 90.2687217
        },
        {
          "id": "SxowUm1hUBVmzNxbYJn3",
          "name": "মাইমোনা ষ্টোর ",
          "address": "পেয়ারা পাড়া সাভার ঢাকা ",
          "lat": 23.8452485,
          "lon": 90.268161
        },
        {
          "id": "DnSctKZQz4Ato0AYVIrE",
          "name": "ভাই বোন স্টোর ",
          "address": "পানপাড়া পশ্চিম রাজাশন সাভার ঢাকা  ",
          "lat": 23.8453618,
          "lon": 90.268363
        },
        {
          "id": "2N9vFv9tI0OIwa5ginBl",
          "name": "মদিনা স্টোর ",
          "address": "পেয়ারা পাড়া  সাভা ঢাকা ",
          "lat": 23.8457107,
          "lon": 90.2688409
        },
        {
          "id": "7QJsAUwVdQprzmgsSxux",
          "name": "আক্তার জেনারেল  স্টোর ",
          "address": "পেয়ারা বাগ পালন পাড়া রাজাশন সাভার ঢাকা ",
          "lat": 23.8459811,
          "lon": 90.268837
        },
        {
          "id": "j9kAHMuKQFu96IdkKm2A",
          "name": "মায়ের দোয়া স্টোর",
          "address": "রাজাশন আমতলা, সাভার, ঢাকা ",
          "lat": 23.8463233,
          "lon": 90.2686396
        },
        {
          "id": "Wbe7p7ToFAZ0OHPlnfQC",
          "name": "আলাউদ্দিন স্টোর ",
          "address": "আমতলা, রাজাশন, সাভার,ঢাকা ",
          "lat": 23.8464737,
          "lon": 90.2687339
        },
        {
          "id": "XVSMxckfFqv6g3Lh9cOX",
          "name": "সাওন স্টোর ",
          "address": "বিরুলিয়া রোড আমতলা সাভার ঢাকা ",
          "lat": 23.8466662,
          "lon": 90.2687443
        },
        {
          "id": "Nfce1B2eOrCCtvkNnAjI",
          "name": "ভাই বোন জেনারেল স্টোর ",
          "address": "বিরুলিয়া সাভার ঢাকা ",
          "lat": 23.8468793,
          "lon": 90.26879
        },
        {
          "id": "VF3xHKFjJ3MJBCcGiT5b",
          "name": "ইমরান স্টোর ",
          "address": "পানপাড়া,বিরুলিয়া রোড, সাভার, ঢাকা",
          "lat": 23.847572,
          "lon": 90.2686807
        },
        {
          "id": "Hv865Ku8UOZq9sVPFNEX",
          "name": "এম আর খান জেনারেল স্টোর ",
          "address": "বিরুলিয়া রোড সাভার ঢাকা ",
          "lat": 23.8475912,
          "lon": 90.2686796
        },
        {
          "id": "yMxOk9OmoXRzwTuhARbY",
          "name": "নজরুল স্টোর ",
          "address": "পানপাড়া,বিরুলিয়া রোড, সাভার, ঢাকা ",
          "lat": 23.8479227,
          "lon": 90.2691534
        },
        {
          "id": "KIOeRhKW7kVEYmxNsqbI",
          "name": "হালিম স্টোর ",
          "address": "পালনপাড়া সাভার ঢাকা ",
          "lat": 23.8480257,
          "lon": 90.2688507
        },
        {
          "id": "97lOgQw7gzAiQPgzsNNG",
          "name": "ভাই ভাই জেনারেল স্টোর  ",
          "address": "বিরুলিয়া রোড সাভার ঢাকা ",
          "lat": 23.8479774,
          "lon": 90.2686405
        },
        {
          "id": "TMDGnqfuBwaylHfHwlEP",
          "name": "ভাই ভাই স্টোর  ২",
          "address": "বিরুলিয়া সাভার ঢাকা  ",
          "lat": 23.8479624,
          "lon": 90.2686243
        },
        {
          "id": "txI7vL1179DkPtW6Pf1p",
          "name": "রোমান আমেনা স্টোর ",
          "address": "বিরুলিয়া রোড সাভার ঢাকা ",
          "lat": 23.8479601,
          "lon": 90.2677651
        }
      ]
    },
    {
      "name": "Mr_karim",
      "polygon": [
        [
          23.89705984415481,
          90.33184826303139
        ],
        [
          23.896755856025397,
          90.33058226046731
        ],
        [
          23.89555950870514,
          90.33024430215568
        ],
        [
          23.89355903436245,
          90.33123671941993
        ],
        [
          23.89318639356609,
          90.33344149507187
        ],
        [
          23.89581446889811,
          90.33354878342473
        ],
        [
          23.896937268382164,
          90.33292114656035
        ]
      ],
      "total_stops": 31,
      "total_distance_km": 0.94,
      "route": [
        {
          "id": "ONKef6YS0FYE1svo9CWF",
          "name": "ইকরাম স্টোর ",
          "address": "আশুলিয়া বাজার নিউ মার্কেট, আশুলিয়া, সাভার ঢাকা ১৩৪১ ",
          "lat": 23.8964477,
          "lon": 90.3310216
        },
        {
          "id": "nVTN5lU8zyin7e5AJjAI",
          "name": " ভাই  ভাই জেনারেল স্টোর ",
          "address": "আশুলিয়া কাঁচা বাজার, সাভার ঢাকা। ",
          "lat": 23.8964733,
          "lon": 90.3310138
        },
        {
          "id": "VeHuWOw6CyBuUb0qscmn",
          "name": "সুমন জেনারেল স্টোর ",
          "address": "আশুলিয়া কাঁচা বাজার, সাভার ঢাকা। ",
          "lat": 23.8965116,
          "lon": 90.3309446
        },
        {
          "id": "aM3ZSqt78bLLoNVzrkdr",
          "name": "আক্তার স্টোর ",
          "address": "আশুলিয়া, সাভার, ঢাকা ",
          "lat": 23.896261,
          "lon": 90.3308665
        },
        {
          "id": "bU6xDqgJn9SZR2GsYmI6",
          "name": "বিসমিল্লাহ কনফেকশনারী ",
          "address": "আশুলিয়া নিউ মার্কেট, আশুলিয়া, সাভার, ঢাকা ",
          "lat": 23.8955569,
          "lon": 90.3309464
        },
        {
          "id": "MBKt9nFjvjicT4HgMnbp",
          "name": "গোলদার স্টোর ",
          "address": "আশুলিয়া বাজার নিউ মার্কেট, আশুলিয়া, সাভার ঢাকা ১৩৪১ ",
          "lat": 23.8957089,
          "lon": 90.3310331
        },
        {
          "id": "nmyztXdyA1AoIzKvm0vj",
          "name": "মায়ের দোয়া জেনারেল স্টোর ",
          "address": "আশুলিয়া বাজার নিউ মার্কেট, আশুলিয়া, সাভার ঢাকা ১৩৪১ ",
          "lat": 23.8957364,
          "lon": 90.3310177
        },
        {
          "id": "0x9njVoKqHW3qwD0KMjO",
          "name": "মেসার্স ললিতা এন্টারপ্রাইজ ",
          "address": "আশুলিয়া কাঁচা বাজার, সাভার ঢাকা। ",
          "lat": 23.8964455,
          "lon": 90.3317794
        },
        {
          "id": "8mhSh1DG809U8oYPE56D",
          "name": "চাদপুর জেনারেল স্টোর ",
          "address": "আশুলিয়া কাঁচা বাজার, সাভার ঢাকা। ",
          "lat": 23.8965334,
          "lon": 90.3317508
        },
        {
          "id": "Y1789d4zYlLzTsVlIUeW",
          "name": "জিতু স্টোর ",
          "address": "আশুলিয়া কাচা বাজার, সাভার, ঢাকা ",
          "lat": 23.8964971,
          "lon": 90.3318676
        },
        {
          "id": "H3FJTCs4DXO6CsvNgTaK",
          "name": "গাজী জেনারেল স্টোর ",
          "address": "আশুলিয়া কাঁচা বাজার, সাভার ঢাকা। ",
          "lat": 23.8964036,
          "lon": 90.3318947
        },
        {
          "id": "WFevciorOYX68NTRfnfj",
          "name": "আশীশ জেনারেল স্টোর ",
          "address": "আশুলিয়া কাঁচা বাজার, সাভার ঢাকা। ",
          "lat": 23.8964025,
          "lon": 90.3319054
        },
        {
          "id": "wAfxKFSp6qJbPecsouOF",
          "name": "দিপ জেনারেল স্টোর ",
          "address": "আশুলিয়া কাঁচা বাজার, সাভার ঢাকা। ",
          "lat": 23.8965566,
          "lon": 90.3321193
        },
        {
          "id": "e7lEnUJViWAgHhumz8Ua",
          "name": "আল আমিন স্টোর ",
          "address": "আশুলিয়া কাঁচা বাজার, সাভার ঢাকা। ",
          "lat": 23.896688,
          "lon": 90.3321003
        },
        {
          "id": "d7hxgZyHiipvxz0U5fiD",
          "name": "ফাহাদ ভ্যারাইটিজ স্টোর ",
          "address": "আশুলিয়া কাঁচা বাজার, সাভার ঢাকা। ",
          "lat": 23.896686,
          "lon": 90.3321463
        },
        {
          "id": "j7dlYZhVQXTk7z3kYGuR",
          "name": "মেসার্স আবু সাইদ স্টোর ",
          "address": "আশুলিয়া কাঁচা বাজার, সাভার ঢাকা। ",
          "lat": 23.8965783,
          "lon": 90.3323296
        },
        {
          "id": "NjNZEu26iZf2dlPUy4Nf",
          "name": "সাতক্ষীরা স্টোর ",
          "address": "আশুলিয়া কাঁচা বাজার, সাভার ঢাকা। ",
          "lat": 23.8965997,
          "lon": 90.3323803
        },
        {
          "id": "lyZykJwLfVjTVHnkxV0n",
          "name": "বাঁধন স্টোর",
          "address": "আশুলিয়া কাঁচা বাজার, সাভার ঢাকা। ",
          "lat": 23.896736,
          "lon": 90.3324409
        },
        {
          "id": "hlUpfY3yrA97v3lXdJbL",
          "name": "মেসার্স শাহী মদিনা ",
          "address": "আশুলিয়া কাঁচা বাজার, সাভার ঢাকা। ",
          "lat": 23.8965892,
          "lon": 90.3324827
        },
        {
          "id": "fqYMS0t0CO9O22iUseTL",
          "name": "সুমন এন্ড সন্স ",
          "address": "আশুলিয়া কাঁচা বাজার, সাভার ঢাকা। ",
          "lat": 23.8964976,
          "lon": 90.3326235
        },
        {
          "id": "oEnv3JmpZBvQluMTSGZd",
          "name": "ভান্ডার স্টোর ",
          "address": "আশুলিয়া কাঁচা বাজার, সাভার ঢাকা। ",
          "lat": 23.8964435,
          "lon": 90.3323699
        },
        {
          "id": "88HYDLeKA5uF5UfaScKd",
          "name": "মানিক স্টোর ",
          "address": "আশুলিয়া কাঁচা বাজার, সাভার ঢাকা। ",
          "lat": 23.8964194,
          "lon": 90.3323837
        },
        {
          "id": "8w1E3DNiSJmistiQGl2d",
          "name": "আমানউল্লাহ স্টোর ",
          "address": "আশুলিয়া কাঁচা বাজার, সাভার ঢাকা। ",
          "lat": 23.8963414,
          "lon": 90.3322569
        },
        {
          "id": "kZSDUYkUVSEoqavl13BU",
          "name": "গফুর স্টোর ",
          "address": "আশুলিয়া কাঁচা বাজার, সাভার ঢাকা। ",
          "lat": 23.8963711,
          "lon": 90.3322012
        },
        {
          "id": "tXVAxi1QOBIZaMLpfAMU",
          "name": "ফ্যামিলি শপ এন্ড ডিপার্টমেন্টাল স্টোর",
          "address": "আশুলিয়া কাঁচা বাজার, সাভার ঢাকা। ",
          "lat": 23.8962357,
          "lon": 90.3321393
        },
        {
          "id": "9MiOZeSNGb7b4XAlzmSB",
          "name": "শাহিন স্টোর ",
          "address": "রচনা বিড রোড,আশুলিয়া, সাভার ঢাকা। ",
          "lat": 23.8948675,
          "lon": 90.3328406
        },
        {
          "id": "zChXuzeZvuhNL8qXe8R7",
          "name": "আলী টি স্টোর ",
          "address": "আশুলিয়া কাঁচা বাজার, সাভার ঢাকা। ",
          "lat": 23.8944553,
          "lon": 90.3325485
        },
        {
          "id": "7lpkocW9sPhDQkTDAQ2O",
          "name": "শহীদ জেনারেল স্টোর ",
          "address": "আনোয়ার জঙ রোড, আশুলিয়া, সাভার, ঢাকা ",
          "lat": 23.8943579,
          "lon": 90.3327013
        },
        {
          "id": "U863wspMKDmSQR2jQLI7",
          "name": "মান লাইব্রেরী এন্ড স্টেশনারি ",
          "address": "আনোয়ার জঙ্ রোড, আশুলিয়া, সাভার, ঢাকা ",
          "lat": 23.8937583,
          "lon": 90.3326285
        },
        {
          "id": "BHNBIUPkraxRk18Xqrcw",
          "name": "মাইশা জুই জেনারেল স্টোর ",
          "address": "সাভার রোড আশুলিয়া বাজার আশুলিয়া ঢাকা ১৩৪১ ",
          "lat": 23.8942563,
          "lon": 90.3317628
        },
        {
          "id": "CntIjUwb29YtmiAGgt9p",
          "name": "কাজল স্টোর ",
          "address": "সাভার রোড আশুলিয়া বাজার আশুলিয়া ঢাকা ১৩৪১ ",
          "lat": 23.894156,
          "lon": 90.3312867
        }
      ]
    },
    {
      "name": "asdasd",
      "polygon": [
        [
          23.914072400536675,
          90.30872762162427
        ],
        [
          23.913351748179046,
          90.30658721898405
        ],
        [
          23.9120182855987,
          90.3066998717546
        ],
        [
          23.911881479652564,
          90.30921041915448
        ]
      ],
      "total_stops": 20,
      "total_distance_km": 0.26,
      "route": [
        {
          "id": "jkYUrZFgeldAeoegF0Aj",
          "name": "আজিজুল জেনারেল স্টোর ",
          "address": "জিরাবো পুকুরপাড় আশুলিয়া সাভার ঢাকা ",
          "lat": 23.9124824,
          "lon": 90.3073202
        },
        {
          "id": "bGtixaFyFoNmlDZC7mHN",
          "name": "পুকুরপাড় চা ও কফি হাউস ",
          "address": "পুকুরপাড় সুপার মার্কেট আশুলিয়া সাভার ঢাকা ",
          "lat": 23.9127944,
          "lon": 90.3076312
        },
        {
          "id": "kidjF8vGs7Ar4m6Uw4q5",
          "name": "জাহিদ এন্টারপ্রাইজ ",
          "address": "জিরাবো, আশুরিয়া, সাভার, ঢাকা ",
          "lat": 23.9131168,
          "lon": 90.3078147
        },
        {
          "id": "L7bNzAc4Fw7KcEFIRlVa",
          "name": "রনি জেনারেল স্টোর ",
          "address": "কাজী সুপার মার্কেট পুকুরপাড়  আশুলিয়া সাভার ঢাকা ",
          "lat": 23.9131545,
          "lon": 90.3079029
        },
        {
          "id": "7BtxkwszBk6hKV5LGdeU",
          "name": "বনাজী ঘর ",
          "address": "জিরাবো,আশুলিয়া, সাভার, ঢাকা ",
          "lat": 23.9131606,
          "lon": 90.3079789
        },
        {
          "id": "3P2ii5NzlDwyyczbtxFd",
          "name": "ভাই ভাই পান বিতান ",
          "address": "জিরাবো, আশুলিয়া, সাভার, ঢাকা ",
          "lat": 23.9131606,
          "lon": 90.3079789
        },
        {
          "id": "S8S7X1grpM8vU1oQDqtH",
          "name": "ভাই ভাই জেনারেল স্টোর ",
          "address": "জিরাবো, আশুলিয়া, সাভার, ঢাকা ",
          "lat": 23.9131687,
          "lon": 90.3079747
        },
        {
          "id": "jlmuWnFFnAxkv6AfcvSE",
          "name": "রমিজ জেনারেল স্টোর ",
          "address": "জিরাবো পুকুরপাড়, আশুলিয়া ,সাভার ,ঢাকা ",
          "lat": 23.9133446,
          "lon": 90.3080064
        },
        {
          "id": "9QpVCC0IR53upeRq53q1",
          "name": "বাতেন জেনারেল স্টোর ",
          "address": "এস আর খান মার্কেট পুকুরপাড় জিরাবো আশুলিয়া সাভার ঢাকা ",
          "lat": 23.9133238,
          "lon": 90.3081009
        },
        {
          "id": "P1ueCw3AaAHvhTpCZNtU",
          "name": "মা জেনারেল স্টোর ",
          "address": "জিরাবো, আশুলিয়া, সাভার, ঢাকা ",
          "lat": 23.9132601,
          "lon": 90.3081958
        },
        {
          "id": "0LdPNMblRjm7bmRZdcUR",
          "name": "মুজাহিদী স্টোর ",
          "address": "জিরাবো পুকুরপাড়, আশুলিয়া ,সাভার ঢাকা ",
          "lat": 23.9132273,
          "lon": 90.3082037
        },
        {
          "id": "eL0FB76nSCLKnjCMeppV",
          "name": "রবিন এন্টারপ্রাইজ ",
          "address": "জিরাবো, আশুলিয়া, সাভার, ঢাকা ",
          "lat": 23.9131867,
          "lon": 90.3081881
        },
        {
          "id": "hThywL2Wbz3C90nUi7RH",
          "name": "আরিফা ডিপার্টমেন্টাল স্টোর ",
          "address": "জিরাবো পুকুর পাড় আশুলিয়া সাভার ঢাকা ",
          "lat": 23.9132053,
          "lon": 90.3080574
        },
        {
          "id": "eR7rycwMyTl0FlJOgXjd",
          "name": "ভাই ভাই জেনারেল স্টোর ",
          "address": "কাজী সুপার মার্কেট পুকুরপাড় জিরাবো আশুলিয়া সাভার ঢাকা ",
          "lat": 23.9131885,
          "lon": 90.3080578
        },
        {
          "id": "kz2ebGkbPiztdsZQQgG1",
          "name": "রাকিব স্টোর ",
          "address": "পুকুরপাড় জিরাবো আশুলিয়া সাভার ঢাকা ",
          "lat": 23.9129869,
          "lon": 90.3082129
        },
        {
          "id": "6f68fnNZm9uhwsihyh33",
          "name": "রংপুর জেনারেল স্টোর  ",
          "address": "জিরাবো পুকুরপাড় আশুলিয়া সাভার ঢাকা ",
          "lat": 23.9129807,
          "lon": 90.308217
        },
        {
          "id": "fR76WHOsmxnlIUhgJDVT",
          "name": "মায়ের দোয়া ফিরোজ স্টোর ",
          "address": "পুকুরপাড় জিরাবো আশুলিয়া সাভার ঢাকা ",
          "lat": 23.9128016,
          "lon": 90.3087468
        },
        {
          "id": "wN5mH1Lw5vSgaxbZoqCa",
          "name": "রাজন জেনারেল স্টোর ",
          "address": "জিরাবো পুকুরপাড় আশুলিয়া সাভার ঢাকা ",
          "lat": 23.9127821,
          "lon": 90.3087566
        },
        {
          "id": "Um8e8l7MGrHSLdtFPZdL",
          "name": "জিহাদ জেনারেল স্টোর ",
          "address": "কর্নেল মার্কেট পুকুর পাড় জিরাবো আশুলিয়া সাভার ঢাকা ",
          "lat": 23.9127941,
          "lon": 90.3087637
        },
        {
          "id": "XvrL83sEJbggNp5wPouL",
          "name": "তামিম জেনারেল স্টোর ",
          "address": " জিরাবো পুকুরপাড় আশুলিয়া সাভার ঢাকা ",
          "lat": 23.9127927,
          "lon": 90.3087816
        }
      ]
    },
    {
      "name": "Sharif",
      "polygon": [
        [
          23.84934962526241,
          90.2620840070259
        ],
        [
          23.848295081262556,
          90.26129007321454
        ],
        [
          23.847117905732745,
          90.26110231859695
        ],
        [
          23.846921708771692,
          90.26344120469
        ],
        [
          23.848363749505097,
          90.26401519737797
        ],
        [
          23.85012949181765,
          90.26367187464868
        ]
      ],
      "total_stops": 15,
      "total_distance_km": 0.35,
      "route": [
        {
          "id": "T0Qn4T5RHyBOzqnRfAoF",
          "name": "আফরিন মার্ট ",
          "address": "সেন্ট্রাল ল্যাবরেটরি সংলগ্ন, শাহীবাগ, সাভার, ঢাকা ",
          "lat": 23.8487281,
          "lon": 90.2628177
        },
        {
          "id": "RxsHicfwOremvIUMopaT",
          "name": "মানিকগঞ্জ স্টোর",
          "address": "শাহীবাগ, সাভার, ঢাকা ",
          "lat": 23.8489479,
          "lon": 90.2628337
        },
        {
          "id": "DKqjxPbBi7EEdCy1yhlP",
          "name": "পাইকারি বাজার ",
          "address": "সোহাগ এপার্টমেন্ট, শাহীবাগ, সাভার, ঢাকা ",
          "lat": 23.8489043,
          "lon": 90.262794
        },
        {
          "id": "AbUlS6Wwxyao6tUxXBfR",
          "name": "মীম বাজার ",
          "address": "সেন্ট্রাল ল্যাবরেটরি স্কুল সংলগ্ন, শাহীবাগ, সাভার, ঢাকা ",
          "lat": 23.8486726,
          "lon": 90.2627907
        },
        {
          "id": "goQrli5Dabobf01jx8o5",
          "name": "বিসমিল্লাহ স্টোর",
          "address": "কমিশনার রোড, শাহীবাগ, সাভার, ঢাকা ",
          "lat": 23.8485567,
          "lon": 90.2627845
        },
        {
          "id": "dm4JGda7TnFecg9MTJ3Q",
          "name": "মেসার্স সুমাইয়া জেনারেল স্টোর ",
          "address": "বিরুলিয়া রোড সাভার ঢাকা  ",
          "lat": 23.8481426,
          "lon": 90.2633764
        },
        {
          "id": "47kxdf4TT9oVbaetJukc",
          "name": "বাপ্পি জেনারেল স্টোর ",
          "address": "শাহবাগ চৌরাস্তা মজিদপুর সাভার ",
          "lat": 23.8480706,
          "lon": 90.2628703
        },
        {
          "id": "afgWlhYocYyvwVarMBQS",
          "name": "মরিয়ম স্টোর ",
          "address": "শাহবাগ চৌরাস্তা সাভার ঢাকা ",
          "lat": 23.8481579,
          "lon": 90.2628066
        },
        {
          "id": "iWu73feG8xwXvUp5KZcn",
          "name": "সলিহিন স্টোর",
          "address": "কমিশনার রোড, শাহীবাগ চৌরাস্তা, শাহীবাগ, সাভার, ঢাকা ",
          "lat": 23.8482554,
          "lon": 90.2627788
        },
        {
          "id": "4YLgZboT16AyeBVVRs9Y",
          "name": "মাসুদ জেনারেল স্টোর",
          "address": "বিরুলিয়া রোড সাভার ঢাকা ",
          "lat": 23.8481182,
          "lon": 90.2622713
        },
        {
          "id": "Lgwz5Dj7YwumSEHwYE1q",
          "name": "মায়ের দোয়া স্টোর ",
          "address": "বিরুলিয়া সাভার  ঢাকা",
          "lat": 23.8480925,
          "lon": 90.262274
        },
        {
          "id": "ymNd7En0bgwdUHi6K2dz",
          "name": "বাচ্চু জেনারেল স্টোর ",
          "address": "বিরুলীয়া রোড, সাভার, ঢাকা ",
          "lat": 23.8480392,
          "lon": 90.2622474
        },
        {
          "id": "qiI28HU5YS2jIW5hM3ce",
          "name": "এস এম সুলতান জেনারেল স্টোর ",
          "address": "বিরুলিয়া রোড সাভার ঢাকা ",
          "lat": 23.8481166,
          "lon": 90.2620206
        },
        {
          "id": "DbhpiKtYCm0d4qlfBK4o",
          "name": "গোল্ডেন ফুড স্টোর ",
          "address": "বিরুলিয়া রোড, সাভার, ঢাকা ",
          "lat": 23.8480671,
          "lon": 90.2616599
        },
        {
          "id": "BXnQeRbX3kXqOsh85PzD",
          "name": "শামির স্টোর ",
          "address": "বিরুলিয়া রোড সাভার ঢাকা ",
          "lat": 23.8480747,
          "lon": 90.2615778
        }
      ]
    },
    {
      "name": "xasd",
      "polygon": [
        [
          24.0465639550471,
          90.25229930727151
        ],
        [
          24.041157174212376,
          90.24672031292113
        ],
        [
          24.034751019727317,
          90.24665593990942
        ],
        [
          24.03561150683207,
          90.26425123004867
        ],
        [
          24.043917816477876,
          90.2654957749299
        ],
        [
          24.047012963929305,
          90.26429414537752
        ]
      ],
      "total_stops": 37,
      "total_distance_km": 3.76,
      "route": [
        {
          "id": "KNs3QiD1q47xvQpDOXUR",
          "name": "মা-বাবার দোয়া ষ্টোর।",
          "address": "এপেক্স বাজার, হরিণহাটি, কালিয়াকৈর, গাজীপুর।",
          "lat": 24.0417987,
          "lon": 90.2618994
        },
        {
          "id": "auiPzl0eRfkat5cESVbw",
          "name": "আব্দুল হালিম স্টোর‌",
          "address": "এপেক্স কাঁচা বাজার,হরিণহাটি, কালিয়াকৈর, গাজীপুর।",
          "lat": 24.0418761,
          "lon": 90.2627115
        },
        {
          "id": "ojmjUO2H3Muy6PVJ7h8I",
          "name": "জিসান স্টোর।",
          "address": "রমিজ উদ্দিন সুপারমার্কেট, এপেক্স কাঁচা বাজার, হরিণহাটি, কালিয়াকৈর, গাজীপুর।",
          "lat": 24.0417402,
          "lon": 90.2621899
        },
        {
          "id": "GNymmkbIHxdzUqDgk9wg",
          "name": "মা-বাবা স্টোর ২ ।",
          "address": "রমিজ উদ্দিন সুপার মার্কেট, এপেক্স কাঁচা বাজার, হরিণহাটি, কালিয়াকৈর, গাজীপুর।",
          "lat": 24.0417346,
          "lon": 90.2621878
        },
        {
          "id": "iko6XFEkQfo1CJHpFy1b",
          "name": "মেহেরিন ষ্টোর।",
          "address": "হরিণহাটি, চান্দুরা, কালিয়াকৈর, গাজীপুর‌।",
          "lat": 24.0417324,
          "lon": 90.2621798
        },
        {
          "id": "rdsURsy5YHedcajd4N0g",
          "name": "মায়ের দোয়া স্টোর ‌।",
          "address": "রমিজ উদ্দিন সুপারমার্কেট, এপেক্স কাঁচা বাজার, হরিণহাটি, কালিয়াকৈর, গাজীপুর।",
          "lat": 24.0415863,
          "lon": 90.2620498
        },
        {
          "id": "A2EwUfFS0asnq83njpwX",
          "name": "ভাই ভাই ষ্টোর তাইজুল।",
          "address": "হরিণের চালা, এপেক্স রোড, কালিয়াকৈর, গাজীপুর।",
          "lat": 24.0403503,
          "lon": 90.2613875
        },
        {
          "id": "LIJMjUqTSiJIVPCsgYsp",
          "name": "আব্দুল্লাহ ষ্টোর।",
          "address": "হরিণহাটি, বড় মসজিদ রোড, কালিয়াকৈর, গাজীপুর।",
          "lat": 24.0392088,
          "lon": 90.2614261
        },
        {
          "id": "Yp4alX4RdilyYLsiX2x6",
          "name": "মহিউদ্দিন শরীফ জেনারেল ষ্টোর।",
          "address": "হরিণহাটি, দ্বিতীয় তলা মসজিদের উত্তর পাশে, এপেক্স রোড, কালিয়াকৈর, গাজীপুর।",
          "lat": 24.0385451,
          "lon": 90.2613559
        },
        {
          "id": "GseEnGr9fBlRVU2a7Qbw",
          "name": "সোহাগ-সিনথিয়া স্টোর।",
          "address": "হরিণহাটি, বড় মসজিদ রোড, পল্লী বিদ্যুৎ, কালিয়াকৈর, গাজীপুর।",
          "lat": 24.0384964,
          "lon": 90.2613524
        },
        {
          "id": "8bwWa5De8ESycE8DtRQF",
          "name": "শরীয়তপুর ভাইভাই স্টোর।",
          "address": "হরিণহাটি, বউবাজার, চান্দুরা, কালিয়াকৈর, গাজীপুর।",
          "lat": 24.0371859,
          "lon": 90.2610813
        },
        {
          "id": "0TH5eic3pFLQOzzmt9Mx",
          "name": "জিহাদ স্টোর।",
          "address": "এপেক্স রোড, হরিণহাটি, কালিয়াকৈর, গাজীপুর।",
          "lat": 24.0410578,
          "lon": 90.2596873
        },
        {
          "id": "Tum3cBzv0EaZNUGxKHzX",
          "name": "রিহান স্টোর।",
          "address": "এপেক্স রোড হরিণহাটি, কালিয়াকৈর গাজীপুর।",
          "lat": 24.0410979,
          "lon": 90.2596632
        },
        {
          "id": "ggm0WH25geyKSenTJxvc",
          "name": "সিঙ্গাপুর কসমেটিক।",
          "address": " বাশ তলা মোড়, ৩ নং গেট, কালিয়াকৈর, গাজীপুর।",
          "lat": 24.0411245,
          "lon": 90.2597558
        },
        {
          "id": "fSSQu9pus1E8maLhe5t4",
          "name": "দয়াল স্টোর।",
          "address": "হরিণহাটি, কালিয়াকৈর, গাজীপুর।",
          "lat": 24.0431524,
          "lon": 90.2588126
        },
        {
          "id": "YOt6ZpMQOwa4OAIJe842",
          "name": "আলামিন স্টোর।",
          "address": "এপেক্স রোড, করিনহাটি, কালিয়াকোর, গাজীপুর।",
          "lat": 24.0431432,
          "lon": 90.2587333
        },
        {
          "id": "NCpMmn7kZzciEXVf00ln",
          "name": "নুসরাত জেনারেল স্টোর।",
          "address": "হরিণহাটি রোড, কালিয়াকৈর, গাজীপুর।",
          "lat": 24.0431423,
          "lon": 90.2586318
        },
        {
          "id": "d6rlD5JI1h8aWbByrOb0",
          "name": "হাকিম স্টোর।",
          "address": "হরিণহাটি রোড, কালিয়াকৈর ,গাজীপুর।",
          "lat": 24.0431423,
          "lon": 90.2586318
        },
        {
          "id": "1CHIi2SpkjUeIkDJxy5B",
          "name": "মরিয়ম মাবিয়া স্টোর।",
          "address": "দিঘীরপাড় কালিয়াকৈর,গাজীপুর।",
          "lat": 24.0455106,
          "lon": 90.2582223
        },
        {
          "id": "fDkJcV6aHFfh25CVZtDW",
          "name": "নাফিজ স্টোর।",
          "address": "দিঘীরপাড়, বটতলা, কালিয়াকৈর, গাজীপুর।",
          "lat": 24.0452103,
          "lon": 90.2581016
        },
        {
          "id": "71IfaqL3QeZ0WljTfH1x",
          "name": "শামীম স্টোর।",
          "address": "পল্লী বিদ্যুৎ রোড, দিঘীরপাড়, কালিপুর, গাজীপুর।",
          "lat": 24.0451663,
          "lon": 90.2580895
        },
        {
          "id": "C4riz3c2O22aLkS1r0FX",
          "name": "ইব্রাহিম স্টোর।",
          "address": "হরিণহাটি রোড, কালিয়াকৈর, গাজীপুর।",
          "lat": 24.0434508,
          "lon": 90.2574526
        },
        {
          "id": "EYUt6wSmZI41fsZrF83D",
          "name": "জিম এন্ড নেহা স্টোর।",
          "address": "পল্লী বিদ্যুৎ, এপেক্স রোড, কালিয়াকৈর, গাজীপুর।",
          "lat": 24.0388261,
          "lon": 90.2568532
        },
        {
          "id": "Z7b5TS6D4sLDJj985aTV",
          "name": "বিসমিল্লাহ স্টোর।",
          "address": "রহিম সুপার মার্কেট, পল্লী বিদ্যুৎ, চান্দরা, কালিয়াকৈর, গাজীপুর।",
          "lat": 24.0375074,
          "lon": 90.2566489
        },
        {
          "id": "pUx0rMcqIxjzaGxyZAl4",
          "name": "চৌধুরী জেনারেল স্টোর।",
          "address": "মমতা সুপার মার্কেট, পল্লী বিদ্যুৎ, চান্দরা, কালিয়াকৈর, গাজীপুর।",
          "lat": 24.0376257,
          "lon": 90.2551979
        },
        {
          "id": "7xllifpUp9hZ6poIUGmV",
          "name": "আলহামদুলিল্লাহ স্টোর।",
          "address": "মোল্লা সুপার মাকেট, পল্লী বিদ্যুৎ, চান্দুরা, কালিয়াকৈর, গাজীপুর।",
          "lat": 24.0364335,
          "lon": 90.2525411
        },
        {
          "id": "OPCrxNHBI7ijtYip4GuU",
          "name": "নজরুল স্টোর।",
          "address": "মোল্লা সুপারমার্কেট, পল্লী বিদ্যুৎ, কালিয়াকৈর, গাজীপুর।",
          "lat": 24.0364187,
          "lon": 90.2525081
        },
        {
          "id": "TJijJSYYbGJkTvppDlyH",
          "name": "আনোয়ার স্টোর।",
          "address": "মোল্লা সুপার মার্কেট, পল্লী বিদ্যুৎ, কালিয়াকৈর, গাজীপুর।",
          "lat": 24.0364187,
          "lon": 90.2525081
        },
        {
          "id": "L2PorysxURJrL2XSDO6o",
          "name": "আলাউদ্দিন স্টোর ২",
          "address": "মোল্লা সুপারমার্কেট, পল্লী বিদ্যুৎ, কালিয়াকৈর, গাজীপুর।",
          "lat": 24.0364315,
          "lon": 90.2524781
        },
        {
          "id": "ay9y9TaysIbOg8U43ZxE",
          "name": "রাফিয়া জেনারেল স্টোর।",
          "address": "মোল্লাপাড়া, মুন্সি মোড়, খান ভিলা, পল্লী বিদ্যুৎ, চান্দরা, কালিয়াকৈর, গাজীপুর।",
          "lat": 24.0366953,
          "lon": 90.2505001
        },
        {
          "id": "skU1XJ48dquR4AMlY6V1",
          "name": "সিরাজগঞ্জ স্টোর।",
          "address": "গোল্ডেন স্কাই ফ্যাক্টরি দুই নং গেট সংলগ্ন, মোল্লাপাড়া, পল্লী বিদ্যুৎ চান্দুরা, কালিয়াকৈর, গাজীপুর।",
          "lat": 24.0367299,
          "lon": 90.250245
        },
        {
          "id": "6f381UQ5Y61C9RR9aHLh",
          "name": "হাজী মোহাম্মদ আবুল হোসেন স্টোর।",
          "address": "মোল্লাপাড়া মোড়, চান্দরা, কালিয়াকৈর, গাজীপুর।",
          "lat": 24.0366798,
          "lon": 90.2491577
        },
        {
          "id": "QBy42m4KGRilc7lN1RGx",
          "name": "আজাদ স্টোর।",
          "address": "মোল্লাপাড়া, পল্লী বিদ্যুৎ, চান্দুরা, কালিয়াকৈর, গাজীপুর।",
          "lat": 24.0366723,
          "lon": 90.2490988
        },
        {
          "id": "ApvFxcX2Hs8sRCRi86ZJ",
          "name": "রেদোয়ান স্টোর।",
          "address": "মন্ডলপাড়া, পল্লী বিদ্যুৎ, কালিয়াকৈর, গাজীপুর।",
          "lat": 24.0379771,
          "lon": 90.2481154
        },
        {
          "id": "vjmvuGpwdRBnvnVdAqLm",
          "name": "দুই বোন স্টোর।",
          "address": "মন্ডলপাড়া, পল্লী বিদ্যুৎ, কালিয়াকৈর, গাজীপুর।",
          "lat": 24.0380025,
          "lon": 90.2477968
        },
        {
          "id": "9v4YnRXrR4qd1jTCi72M",
          "name": "হাসান হোসেন স্টোর।",
          "address": "মন্ডলপাড়া, চান্দুরা, কালিয়াকৈর, গাজিপুর।",
          "lat": 24.0380279,
          "lon": 90.2475866
        },
        {
          "id": "UrblmHcJRpcdMzywvoEK",
          "name": "মেসাস রিফাত জেনারেল স্টোর।",
          "address": "মন্ডলপাড়া মাজার গেইট সংলগ্ন, চান্দুরা, মন্ডলপাড়া, কালিয়াকৈর, গাজীপুর।",
          "lat": 24.039355,
          "lon": 90.2481412
        }
      ]
    },
    {
      "name": "test boy",
      "polygon": [
        [
          24.013038268290842,
          90.31360387576864
        ],
        [
          24.00808076818615,
          90.30776738937132
        ],
        [
          24.002554791918453,
          90.30733823595975
        ],
        [
          24.00110467372804,
          90.31720876442579
        ],
        [
          24.009130980120382,
          90.32154321477007
        ],
        [
          24.01277561330884,
          90.31692981559576
        ]
      ],
      "total_stops": 39,
      "total_distance_km": 3.91,
      "route": [
        {
          "id": "KG3154qQ5CEvwWBeMXhD",
          "name": "শাকিল স্টোর।",
          "address": "টাটার দক্ষিণ পাশে এসরার,নগর হাউজিং,কোনাবাড়ী, গাজীপুর।",
          "lat": 24.0099878,
          "lon": 90.3182058
        },
        {
          "id": "M6nlqETNQokYRzS4i6eV",
          "name": "সিয়াম স্টোর।",
          "address": "পারিজাত রোড,বিসিকের পেছনে, কোনাবাড়ি, গাজীপুর।",
          "lat": 24.0078705,
          "lon": 90.3188644
        },
        {
          "id": "gcD4HdZ8CAcLapKjaOFD",
          "name": "মারুফ জেনারেল স্টোর।",
          "address": "হরিনাচালা রোড, মিডিটেকস এর উত্তর পাশে, কোনাবাড়ি, গাজীপুর।",
          "lat": 24.0058846,
          "lon": 90.3194452
        },
        {
          "id": "IuQhF52T4iupaRypkSjv",
          "name": "ফজলু স্টোর।",
          "address": "দক্ষিণ হরিণচালা, কোনাবাড়ী, গাজীপুর।",
          "lat": 24.0047703,
          "lon": 90.3189188
        },
        {
          "id": "Yx8aepRDSNUySsYUWhgF",
          "name": "জান্নাত স্টোর।",
          "address": "পরিজাত রোড, ৮ তলা মোড়,কোনাবাড়ি, গাজীপুর।",
          "lat": 24.0061922,
          "lon": 90.3173207
        },
        {
          "id": "uyqB2fHFR2iwnuXAPQ2E",
          "name": "গাউছিয়া ভ্যারাইটিজ স্টোর।",
          "address": "আমতলা, পারিজাত, হরিণাচালা, কোনাবাড়ি, গাজীপুর।",
          "lat": 24.008098,
          "lon": 90.3164484
        },
        {
          "id": "JaL0EPNMwgbbw7m8omMm",
          "name": "সীমান্ত স্টোর।",
          "address": "জেলখানা রোড, কোনাবাড়ি, গাজীপুর।",
          "lat": 24.0096864,
          "lon": 90.3140085
        },
        {
          "id": "BOOlUAiSWW7JLGcaAVbb",
          "name": "মা-বাবার দোয়া কসমেটিক।",
          "address": "জেলখানা রোড, কোনাবাড়ী, গাজীপুর।",
          "lat": 24.0096597,
          "lon": 90.3139782
        },
        {
          "id": "4LLisnIFETIlF6mlQfk2",
          "name": "আবু সিদ্দিক ষ্টোর।",
          "address": "জেলখানা রোড, কোনাবাড়ী, গাজীপুর।",
          "lat": 24.009559,
          "lon": 90.3140016
        },
        {
          "id": "dcnE8gabkJqdezkN67HG",
          "name": "জান্নাতুল ফেরদৌস ষ্টোর।",
          "address": "জেলখানা রোড, কোনাবাড়ি, গাজীপুর।",
          "lat": 24.0082632,
          "lon": 90.3138282
        },
        {
          "id": "rWAny7q3svpBuzTbI0RN",
          "name": "ভাই ভাই স্টোর।",
          "address": "জেলখানা রোড, কোনাবাড়ী, গাজীপুর।",
          "lat": 24.0080368,
          "lon": 90.3135874
        },
        {
          "id": "jxdvj1ZJ100kNK6pNlte",
          "name": "তানিয়া স্টোর।",
          "address": "জেলখানা রোড, কোনাবাড়ি, গাজীপুর।",
          "lat": 24.0079985,
          "lon": 90.3136711
        },
        {
          "id": "iQQCxt4RzXXVf7dqy6SB",
          "name": "জাহাঙ্গীর ষ্টোর।",
          "address": "জেলখানা রোড, কোনাবাড়ি, গাজীপুর।",
          "lat": 24.0076934,
          "lon": 90.3136443
        },
        {
          "id": "CEO7qlWlDPVkPCgCbVTC",
          "name": "ভোলা এন্টারপ্রাইজ।",
          "address": "জেলখানা রোড, কোনাবাড়ি, গাজীপুর।",
          "lat": 24.0077059,
          "lon": 90.3139054
        },
        {
          "id": "lkFCz8IY8ap63B50G2SI",
          "name": "সজীব জেনারেল স্টোর।",
          "address": "আবু তালেব মেম্বার সড়ক, জেলখানা রোড, কোনাবাড়ি, গাজীপুর।",
          "lat": 24.0066445,
          "lon": 90.314322
        },
        {
          "id": "LaIhV1F4PbHBnaJVm2L3",
          "name": "মা-বাবার দোয়া কনফেকশনারী।",
          "address": "জেলখানা রোড, কোনাবাড়ি, গাজীপুর।",
          "lat": 24.0053628,
          "lon": 90.3139904
        },
        {
          "id": "Ws89PlNlfelnxFgIoEbn",
          "name": "মদিনা স্টোর।",
          "address": "হাজী দাইনউদ্দিন সুপার মার্কেট, জেলখানা রোড, কোনাবাড়ি, গাজীপুর।",
          "lat": 24.0048059,
          "lon": 90.3141797
        },
        {
          "id": "4nk4SRoZ69Jg3nTA4KpP",
          "name": "মেসার্স রাজু ষ্টোর।",
          "address": "কাশিমপুর কারাগার সংলগ্ন, কোনাবাড়ি, গাজীপুর।",
          "lat": 24.0047852,
          "lon": 90.3143199
        },
        {
          "id": "9qQ5rkFk60mT12s60Rtc",
          "name": "ব্রাদার স্টার।",
          "address": "জেলখানা রোড, কোনাবাড়ী, গাজীপুর।",
          "lat": 24.0044766,
          "lon": 90.3140743
        },
        {
          "id": "I9F4QHSFb5M6IegzGpEa",
          "name": "আব্দুল্লাহ স্টোর।",
          "address": "হরিণের চালা, কাশিমপুর কারাগার সংলগ্ন, কোনাবাড়ি, গাজীপুর।",
          "lat": 24.0032118,
          "lon": 90.3149945
        },
        {
          "id": "LHNceGO02WumqM2Ba8bk",
          "name": "সাজ্জাদ স্টোর।",
          "address": "হরিণের চলা রোড, কোনাবাড়ী, কাশিমপুর, গাজীপুর।",
          "lat": 24.0031851,
          "lon": 90.31497
        },
        {
          "id": "m5U0ZicpJbTUpM3Cx1Mf",
          "name": "শাকিল স্টোর ‌",
          "address": "হরিণের চালা, কাশিমপুর, কোনাবাড়ী, গাজীপুর।",
          "lat": 24.0021211,
          "lon": 90.3167928
        },
        {
          "id": "U7bE6oqsBE2dGa53xEhT",
          "name": "ভাই ভাই স্টোর।",
          "address": "হরিণের চালা, কোনাবাড়ী, কাশিমপুর, গাজীপুর।",
          "lat": 24.0020773,
          "lon": 90.3167875
        },
        {
          "id": "Tnad6I9Qp7DYZqB4CNgp",
          "name": "হযরত শাজালাল স্টোর।",
          "address": "হরিণের চালা, কাশিমপুর, কোনাবাড়ী, গাজীপুর।",
          "lat": 24.0021214,
          "lon": 90.3166871
        },
        {
          "id": "NRrhBa4hJunWmANDOt4l",
          "name": "নাঈম জেনারেল স্টোর।",
          "address": "দক্ষিণ হরিনাল চালা, কোনাবাড়ি, গাজীপুর মহানগর।",
          "lat": 24.0021026,
          "lon": 90.3159681
        },
        {
          "id": "wDshujsf1c9TTtE3AaCg",
          "name": "সাব্বির স্টোর।",
          "address": "দক্ষিণ হরিনাল চালা, ঈদগা মাঠ, কোনাবাড়ি, গাজীপুর।",
          "lat": 24.002096,
          "lon": 90.315364
        },
        {
          "id": "6u0DxrDwfJIMaA2ucwHq",
          "name": "রিমি জেনারেল স্টোর।",
          "address": "জেলখানা রোড, আফসার মেম্বার মসজিদ সংলগ্ন, কোনাবাড়ি, গাজীপুর।",
          "lat": 24.0042742,
          "lon": 90.3107632
        },
        {
          "id": "QzgjhdrV8daL9vXZmSnb",
          "name": "ভাই ভাই স্টোর।",
          "address": "জেলখানা রোড, আফসার মেম্বার মসজিদ সংলগ্ন, কোনাবাড়ি, গাজীপুর।",
          "lat": 24.0042736,
          "lon": 90.3107498
        },
        {
          "id": "VSpYVzCGX2brtV52YiV2",
          "name": "মুসা স্টোর।",
          "address": "জেলখানা রোড, কোনাবাড়ী, গাজীপুর।",
          "lat": 24.0045734,
          "lon": 90.3098253
        },
        {
          "id": "h58dYh82fITnIRCt6npI",
          "name": "জুবায়ের স্টোর।",
          "address": "জেলখানা রোড, কোনাবাড়ী, গাজীপুর।",
          "lat": 24.0042253,
          "lon": 90.3082302
        },
        {
          "id": "daxj4OkM1sA9Osyov9yy",
          "name": "সিফাত স্টোর।",
          "address": "জেলখানা রোড, কোনাবাড়ী, গাজীপুর।",
          "lat": 24.0045539,
          "lon": 90.3081845
        },
        {
          "id": "qTYJ8O8GRnEJy5oI2e2M",
          "name": "আরাফাতে স্টোর।",
          "address": "ডানো গলি, জেলখানা রোড, কোনাবাড়ী, গাজীপুর।",
          "lat": 24.0064354,
          "lon": 90.3111869
        },
        {
          "id": "J3xdXyXfUVcaAhwIqUyv",
          "name": "ইমান আলী স্টোর।",
          "address": "ডানো গলি, জেলখানা রোড, কোনাবাড়ী, গাজীপুর।",
          "lat": 24.0073175,
          "lon": 90.311183
        },
        {
          "id": "kJnN5Nq2NZFZBYl7nJxW",
          "name": "মুনতাহাজ স্টোর।",
          "address": "ডানো গোলি, জেলখানা রোড, কোনাবাড়ি, গাজীপুর।",
          "lat": 24.0072835,
          "lon": 90.3111144
        },
        {
          "id": "bGXYF0xvYx9G0DV2NPJ6",
          "name": "সারোয়ার জেনারেল স্টোর।",
          "address": "ডানো গলি জেলখানা রোড কোনাবাড়ি গাজীপুর।",
          "lat": 24.0073673,
          "lon": 90.3110269
        },
        {
          "id": "ryXhGfnzwQlh5EOluTzD",
          "name": "নুরুল ইসলাম স্টোর।",
          "address": "ডানো গলি, জেলখানা রোড, কোনাবাড়ি, গাজীপুর।",
          "lat": 24.007392,
          "lon": 90.3109691
        },
        {
          "id": "TfknUDuvaMarHQVmUMjO",
          "name": "সিয়াম স্টোর।",
          "address": "ডানো গলি, জেলখানা রোড, কোনাবাড়ি, গাজীপুর।",
          "lat": 24.0074653,
          "lon": 90.3109605
        },
        {
          "id": "vmMt8NBy6cppEGnfwuSm",
          "name": "আবুল কালাম স্টোর।",
          "address": "দানো গলি, জেলখানা রোড, কোনাবাড়ি, গাজীপুর।",
          "lat": 24.0074653,
          "lon": 90.3109605
        },
        {
          "id": "h0IAkvaTsbUbGc8pkOIO",
          "name": "রাবেয়া স্টোর।",
          "address": "ডানো বলি, জেলখানা রোড, কোনাবাড়ি, গাজীপুর।",
          "lat": 24.0074653,
          "lon": 90.3109605
        }
      ]
    },
    {
      "name": "Shorif bhai ar pc",
      "polygon": [
        [
          23.79319370768272,
          90.37025749683382
        ],
        [
          23.792295452140948,
          90.36994636058809
        ],
        [
          23.791328470656463,
          90.3700375556946
        ],
        [
          23.790768894328167,
          90.37111043930055
        ],
        [
          23.790901425781563,
          90.37256956100465
        ],
        [
          23.791662251880506,
          90.37367463111879
        ],
        [
          23.792398530961112,
          90.37413060665132
        ],
        [
          23.793041544612443,
          90.37428617477418
        ],
        [
          23.7933949553407,
          90.3715878725052
        ]
      ],
      "total_stops": 36,
      "total_distance_km": 0.91,
      "route": [
        {
          "id": "NLCx450oUaC9sUnXiNKm",
          "name": "ভাই ভাই স্টোর ",
          "address": "১১৮/৯ পশ্চিম শেওড়া পাড়া মিরপুর ",
          "lat": 23.7921453,
          "lon": 90.3704173
        },
        {
          "id": "TuY0b6470R5ApwWzTZqU",
          "name": "রহমান জেনারেল স্টোর ",
          "address": "আনন্দবাজার পশ্চিম শেওড়াপাড়া ",
          "lat": 23.7918896,
          "lon": 90.3708138
        },
        {
          "id": "Ro5QiZk7K9ybZ3AbbSK6",
          "name": "হারুন জেনারেল স্টোর ",
          "address": " ৩৬৮/১/১০, আনন্দ বাজার , পশ্চিম শেওড়াপাড়া মিরপুর ঢাকা ",
          "lat": 23.7917469,
          "lon": 90.3708277
        },
        {
          "id": "i2APwB05eBxJktCkL9cN",
          "name": "নাবিদ ডিপার্টমেন্ট স্টোর ",
          "address": "পূর্ব রাজাবাজার তেজগাঁও ঢাকা",
          "lat": 23.7916027,
          "lon": 90.3706439
        },
        {
          "id": "cxyscGfSBdsa3PaBXNvm",
          "name": "নিলয় এন্টারপ্রাইজ ",
          "address": "১৫৯/১৮/৫/২,পশ্চিম শেওড়াপাড়া মিরপুর ঢাকা ",
          "lat": 23.7914939,
          "lon": 90.3707781
        },
        {
          "id": "R1cM4nqNoaNgIXg0armT",
          "name": "ভাই বোন স্টোর ",
          "address": " পশ্চিম শেওড়াপাড়া মিরপুর ঢাকা ",
          "lat": 23.7913402,
          "lon": 90.3711255
        },
        {
          "id": "5cKmAupnrhg2FgBvIDWl",
          "name": "মোস্তফা কামাল স্টোর ",
          "address": "পশ্চিম শেওড়াপাড়া ঢাকা ",
          "lat": 23.7913431,
          "lon": 90.3711322
        },
        {
          "id": "M1X8s9OEUhpKVQOuGlyR",
          "name": "ভাই ভাই জেনারেল স্টোর ",
          "address": "শেওড়াপাড়া মিরপুর ঢাকা ",
          "lat": 23.7913167,
          "lon": 90.3711479
        },
        {
          "id": "zU54uASIZvAamlJnQr3u",
          "name": "ভাই ভাই জেনারেল স্টোর ",
          "address": "পশ্চিম শেওড়াপাড়া ঢাকা ",
          "lat": 23.7913069,
          "lon": 90.3711357
        },
        {
          "id": "4nFp5GtCHZTpBPsZBV7J",
          "name": "হাসান জেনারেল স্টোর",
          "address": "শেওড়াপাড়া ঢাকা",
          "lat": 23.7912972,
          "lon": 90.3711387
        },
        {
          "id": "AHKLRGGpX2FPe26RQYH1",
          "name": "সালমা টেডার্স ",
          "address": "পশ্চিম শেওড়াপাড়া মিরপুর ঢাকা ",
          "lat": 23.7912501,
          "lon": 90.3713458
        },
        {
          "id": "oAQswpBoioFuzayn9GOl",
          "name": "আলম জেনারেল স্টোর ",
          "address": "পশ্চিম শেওড়াপাড়া ঢাকা ",
          "lat": 23.7912457,
          "lon": 90.3715479
        },
        {
          "id": "6TuK6Mw6qFiTszaX6d3z",
          "name": "ভাই ভাই স্টোর",
          "address": "পশ্চিম শেওড়াপাড়া মিরপুর ঢাকা",
          "lat": 23.7912496,
          "lon": 90.3715685
        },
        {
          "id": "N4DtCVKukdisSjMAdVQz",
          "name": "বিসমিল্লাহ ফুডস ",
          "address": "১৫৯/৯ ক পশ্চিম শেওড়াপাড়া ঢাকা-১২১৬ ",
          "lat": 23.7913811,
          "lon": 90.372098
        },
        {
          "id": "CHzCuBFgT4P5fqfj44aK",
          "name": "আমেনা জেনারেল স্টোর ",
          "address": "পশ্চিম শেওড়াপাড়া মিরপুর ঢাকা ",
          "lat": 23.7915278,
          "lon": 90.3724087
        },
        {
          "id": "po0xyxhIf3A0GF6A0b4R",
          "name": "বিসমিল্লাহ স্টোর ",
          "address": "পশ্চিম শেওড়াপাড়া মন্নান সরনী ঢাকা ",
          "lat": 23.7915261,
          "lon": 90.372506
        },
        {
          "id": "me21gAFjiKCoLsK6M7bM",
          "name": "আমিন রহমান  স্টোর ",
          "address": "মান্নান সরনি শেওড়াপাড়া ঢাকা  ",
          "lat": 23.7916565,
          "lon": 90.3728178
        },
        {
          "id": "Kvy5bNeKuBtv6JMfsDIK",
          "name": "আমিন স্টোর  ",
          "address": "মান্নান সরণী শেওড়াপাড়া ঢাকা",
          "lat": 23.79171,
          "lon": 90.3729219
        },
        {
          "id": "TRsx3ydZa80p190VeuLM",
          "name": "সবুজ জেনারেল স্টোর ",
          "address": "পশ্চিম শেওড়াপাড়া  মিরপুর ঢাকা ",
          "lat": 23.7917142,
          "lon": 90.3729203
        },
        {
          "id": "Jw105L0yg4e9wUfCKI2o",
          "name": "আলাউদ্দিন জেনারেল স্টোর ",
          "address": "শেওড়াপাড়া বেলতলা ঢাকা ",
          "lat": 23.7919715,
          "lon": 90.3734283
        },
        {
          "id": "59ZgEvfPBgbprVw7HnpD",
          "name": "সাজ্জাদ  স্টোর ",
          "address": "পশ্চিম শেওড়াপাড়া মিরপুর ঢাকা ১২১৬",
          "lat": 23.7919877,
          "lon": 90.3736841
        },
        {
          "id": "3nUpIazPJNQUKekyB5Zk",
          "name": "সদাই ঘর ",
          "address": "পশ্চিম শেওড়া পাড়া ,মিরপুর ঢাকা ",
          "lat": 23.7922687,
          "lon": 90.3736137
        },
        {
          "id": "asEO6StPKkHvQ2v3uf2b",
          "name": "সোহেল জেনারেল স্টোর",
          "address": "৭২২/৭,,পশ্চিম শেওড়া পাড়া, মিরপুর, ঢাকা",
          "lat": 23.792285,
          "lon": 90.3735946
        },
        {
          "id": "j3d5AjZHD1MrUVbgNi4M",
          "name": "সিয়াম  জেনারেল স্টোর ",
          "address": "পশ্চিম শেওড়াপাড়া মিরপুর ঢাকা ",
          "lat": 23.7923977,
          "lon": 90.3735564
        },
        {
          "id": "DncTWQEyRvETbqWk23YP",
          "name": "মান্নান স্টোর ",
          "address": "২৬১,পশ্চিম শেওড়াপাড়া মিরপুর ঢাকা ",
          "lat": 23.7924035,
          "lon": 90.3735661
        },
        {
          "id": "dt5bnS6Ioud2N8jyPjqW",
          "name": "আলম জেনারেল স্টোর  ",
          "address": "শেওড়াপাড়া ঢাকা ",
          "lat": 23.7924288,
          "lon": 90.3735671
        },
        {
          "id": "ym731E8oprrNdFWiY2VX",
          "name": "বিসমিল্লা জেনারেল স্টোর ",
          "address": "পশ্চিম শেওড়া পাড়া মিরপুর ",
          "lat": 23.7924892,
          "lon": 90.3736879
        },
        {
          "id": "FTAbGzAuhiHibpj4fvSb",
          "name": "সাথী স্টোর ",
          "address": "পশ্চিমশেওড়া পাড়া মিরপুর ঢাকা ",
          "lat": 23.7926235,
          "lon": 90.3741
        },
        {
          "id": "SoJnq49KJa9hTZLe8cxs",
          "name": "মাহিনুল স্টোর",
          "address": "২৫৪ মান্নান স্বরনী শেওড়াপাড়া মিরপুর ১২১৬",
          "lat": 23.7928051,
          "lon": 90.3742044
        },
        {
          "id": "IGVPbvCDPlVEnC3caNTu",
          "name": "বিসমিল্লাহ জেনারেল স্টোর ",
          "address": "পশ্চিম শেওড়াপাড়া  ঢাকা ",
          "lat": 23.7926969,
          "lon": 90.3738327
        },
        {
          "id": "o0RhnCqgX24GaJCaCoCW",
          "name": "আনাস জেনারেল স্টোর",
          "address": "পশ্চিমপাড়া ঢাকা ",
          "lat": 23.7927411,
          "lon": 90.3713494
        },
        {
          "id": "d519nXuur5d215lpC7Z2",
          "name": "ভাই ভাই জেনারেল স্টোর ",
          "address": "পশ্চিম শেওড়াপাড়া বটতলা ",
          "lat": 23.7928865,
          "lon": 90.3712649
        },
        {
          "id": "itlyFUKhinIab8qC4ihd",
          "name": "ভোলা জেনারেল স্টোর ",
          "address": "১৭২ পশ্চিম শেওড়াপাড়া, মিরপুর,  ঢাকা ",
          "lat": 23.7929434,
          "lon": 90.3712371
        },
        {
          "id": "wdQ3X9XvKuFNzNbwShl0",
          "name": "হারুন জেনারেল স্টোর",
          "address": "পশ্চিম শেওড়াপাড়া ঢাকা ",
          "lat": 23.7928047,
          "lon": 90.371115
        },
        {
          "id": "6LerbJ33ilMWpcHWydqE",
          "name": "ইসলামিয়া স্টোর ",
          "address": "পূর্ব রাজাবাজার আমতলা ঢাকা ",
          "lat": 23.7927831,
          "lon": 90.3710896
        },
        {
          "id": "aLg9rafPyQVd8XFmy3bw",
          "name": "বাদশা জেনারেল স্টোর",
          "address": "বেলতলা মজিদ শেওড়া পাড়া ঢাকা",
          "lat": 23.7927704,
          "lon": 90.3710606
        }
      ]
    }
  ]
}